[
  {
    "address": "Château de Marines, Place Amiral Ernest Peyron, Marines, Pontoise 95640, France",
    "title": "Château de Marines",
    "lon": 1.980064,
    "lat": 49.142937,
    "url": ""
  },
  {
    "address": "Église Saint-Caprais, Place de l'Église, Grisy-les-Plâtres, Pontoise 95810, France",
    "title": "Église Saint-Caprais",
    "lon": 2.050784,
    "lat": 49.131115,
    "url": ""
  },
  {
    "address": "Église Saint-Martin, Rue Guynemer, Le Village, Cormeilles-en-Vexin, Pontoise 95830, France",
    "title": "Église Saint-Martin",
    "lon": 2.017886,
    "lat": 49.115528,
    "url": ""
  },
  {
    "address": "Église Notre-Dame, Place de l'Église, Épiais-Rhus, Pontoise 95810, France",
    "title": "Église Notre-Dame",
    "lon": 2.062503,
    "lat": 49.122692,
    "url": ""
  },
  {
    "address": "Église Notre-Dame de l'Assomption, Rue de Clery, Frémécourt, Pontoise 95830, France",
    "title": "église Notre-Dame-de-l'Assomption de Frémécourt",
    "lon": 2.001481,
    "lat": 49.11974,
    "url": ""
  },
  {
    "address": "Église Saint-Rémi, Rue de l'Oratoire, Les Hautiers, Marines, Pontoise 95640, France",
    "title": "Église Saint-Rémi",
    "lon": 1.982934,
    "lat": 49.145367,
    "url": ""
  },
  {
    "address": "Église Saint-Crépin et Saint-Crépinien, Ruelle Fontaine Saint-Léger, Le Val, Bréançon, Pontoise 95640, France",
    "title": "Église Saint-Crépin-Saint-Crépinien de Bréançon",
    "lon": 2.021932,
    "lat": 49.142841,
    "url": ""
  },
  {
    "address": "Château de Méréville, Rue Danton, Méréville, Le Mérévillois, Étampes 91660, France",
    "title": "château de Méréville",
    "lon": 2.090901,
    "lat": 48.31979,
    "url": ""
  },
  {
    "address": "Halle, Place des Halles, Méréville, Le Mérévillois, Étampes 91660, France",
    "title": "Halle",
    "lon": 2.089149,
    "lat": 48.31937,
    "url": ""
  },
  {
    "address": "Pont du Moulin, Méréville, Le Mérévillois, Étampes 91660, France",
    "title": "pont sur la Juine",
    "lon": 2.09353,
    "lat": 48.317348,
    "url": ""
  },
  {
    "address": "8, Rue de la Gare, Méréville, Le Mérévillois, Étampes 91660, France",
    "title": "Lavoir de Méréville (Essonne)",
    "lon": 2.0933,
    "lat": 48.31715,
    "url": ""
  },
  {
    "address": "Hameau de Bierville, Saclas, Étampes 91690, France",
    "title": "borne seigneuriale de Saclas",
    "lon": 2.124,
    "lat": 48.3764,
    "url": ""
  },
  {
    "address": "Église Saint-Martin, Rue Courte, Les Hautes Garces, Étampes 91150, France",
    "title": "Église Saint-Martin d'Étampes",
    "lon": 2.139485,
    "lat": 48.426193,
    "url": ""
  },
  {
    "address": "Château du Grand-Saint-Mars, Rue de la Pelleterie, Châlo-Saint-Mars, Chalo-Saint-Mars, Étampes 91780, France",
    "title": "Château du Grand-Saint-Mars",
    "lon": 2.067709,
    "lat": 48.425655,
    "url": ""
  },
  {
    "address": "Église Saint-Médard, Place de l'Église, Châlo-Saint-Mars, Chalo-Saint-Mars, Étampes 91780, France",
    "title": "Église de Chalo-Saint-Mars",
    "lon": 2.06799,
    "lat": 48.427197,
    "url": ""
  },
  {
    "address": "Chemin Gâtinais Beauce, Saint-Hilaire, Étampes 91780, France",
    "title": "Menhir de Pierrefitte (Étampes)",
    "lon": 2.105813,
    "lat": 48.428841,
    "url": ""
  },
  {
    "address": "Château de Boissy-le-Sec, Grande Rue, Boissy-le-Sec, Étampes 91870, France",
    "title": "Château de Boissy-le-Sec",
    "lon": 2.089692,
    "lat": 48.477127,
    "url": ""
  },
  {
    "address": "Église Saint-Quentin, Route de Villeconin, Brières-les-Scellés, Étampes France",
    "title": "Église Saint-Quentin",
    "lon": 2.137774,
    "lat": 48.457439,
    "url": ""
  },
  {
    "address": "Église Saint-Louis, Place de l'Église, Boissy-le-Sec, Étampes 91870, France",
    "title": "Église Saint-Louis de Boissy-le-Sec",
    "lon": 2.089234,
    "lat": 48.478466,
    "url": ""
  },
  {
    "address": "Château de Saudreville, Route d'Etampes, Ferme de la Ronce, Villeconin, Étampes 91580, France",
    "title": "Château de Saudreville",
    "lon": 2.130465,
    "lat": 48.498856,
    "url": ""
  },
  {
    "address": "Manoir des Ardenelles, Grande Rue, Villeconin, Étampes 91580, France",
    "title": "Manoir des Ardenelles",
    "lon": 2.12343,
    "lat": 48.513454,
    "url": ""
  },
  {
    "address": "Manoir des Ardenelles, Grande Rue, Villeconin, Étampes 91580, France",
    "title": "Manoir des Ardenelles",
    "lon": 2.122953,
    "lat": 48.51366,
    "url": ""
  },
  {
    "address": "Chemin de Saint-Chéron à Étampes, Souzy-la-Briche, Étampes 91580, France",
    "title": "polissoir du bois de la Guigneraie",
    "lon": 2.1476,
    "lat": 48.517399,
    "url": ""
  },
  {
    "address": "Chemin de Saint-Chéron à Étampes, Souzy-la-Briche, Étampes 91580, France",
    "title": "polissoir du bois de la Charmille",
    "lon": 2.1472,
    "lat": 48.518299,
    "url": ""
  },
  {
    "address": "Domaine de Baville, Rue Gabriel Péri, Jouy, Breux-Jouy, Étampes 91650, France",
    "title": "Domaine de Baville",
    "lon": 2.144836,
    "lat": 48.559944,
    "url": ""
  },
  {
    "address": "Chemin de la Tuilerie au Coin du Parc, Saint-Chéron, Étampes 91530, France",
    "title": "Domaine de Baville",
    "lon": 2.130896,
    "lat": 48.562923,
    "url": ""
  },
  {
    "address": "Château de Baville, Rue du Petit Baville, Saint-Chéron, Étampes 91530, France",
    "title": "Saint-Cheron",
    "lon": 2.127366,
    "lat": 48.566757,
    "url": ""
  },
  {
    "address": "Dépendance, Rue du Marais, Le Marais, Le Val-Saint-Germain, Étampes 91530, France",
    "title": "Dépendance",
    "lon": 2.102358,
    "lat": 48.573875,
    "url": ""
  },
  {
    "address": "Château du Marais, Rue du Marais, Le Marais, Le Val-Saint-Germain, Étampes 91530, France",
    "title": "Château du Marais",
    "lon": 2.102233,
    "lat": 48.573311,
    "url": ""
  },
  {
    "address": "Château de Forges, Rue des Puits, Ferme d'Adelaïau, Forges-les-Bains, Palaiseau 91470, France",
    "title": "Château de Forges",
    "lon": 2.097401,
    "lat": 48.626801,
    "url": ""
  },
  {
    "address": "Ancien château d'Angervilliers, Rue du Château, Angervilliers, Palaiseau 91470, France",
    "title": "Ancien château d'Angervilliers",
    "lon": 2.065084,
    "lat": 48.590633,
    "url": ""
  },
  {
    "address": "Château de Forges-les-Bains, Rue des Richards, Ferme d'Adelaïau, Forges-les-Bains, Palaiseau 91470, France",
    "title": "Château de Forges-les-Bains",
    "lon": 2.098581,
    "lat": 48.626629,
    "url": ""
  },
  {
    "address": "Château d'Angervilliers, Rue du Château, Angervilliers, Palaiseau 91470, France",
    "title": "Château d'Angervilliers",
    "lon": 2.064613,
    "lat": 48.591518,
    "url": ""
  },
  {
    "address": "Château de Courson, Voie de Monteloup, Courson, Courson-Monteloup, Palaiseau 91680, France",
    "title": "Château de Courson",
    "lon": 2.146786,
    "lat": 48.600086,
    "url": ""
  },
  {
    "address": "Église Saint-Denis, Place du Poutil, Briis-sous-Forges, Palaiseau 91640, France",
    "title": "Église Saint-Denis",
    "lon": 2.122905,
    "lat": 48.625977,
    "url": ""
  },
  {
    "address": "Les Flèches des cathédrales, Route de Machery, Bajolet, Forges-les-Bains, Palaiseau 91470, France",
    "title": "Les Flèches des cathédrales",
    "lon": 2.075135,
    "lat": 48.604141,
    "url": ""
  },
  {
    "address": "Rue Pavée, Angervilliers, Palaiseau 91470, France",
    "title": "Église Saint-Étienne d'Angervilliers",
    "lon": 2.064754,
    "lat": 48.592098,
    "url": ""
  },
  {
    "address": "Château de la Boissière, Rue du Commandant Heriot, La Boissière-École, Rambouillet 78125, France",
    "title": "Château de La Boissière",
    "lon": 1.654888,
    "lat": 48.681065,
    "url": ""
  },
  {
    "address": "Église Saint-Clair, Rue de l'Église, Les Delâches, Gometz-le-Châtel, Palaiseau 91940, France",
    "title": "Église Saint-Clair (Gometz-le-Châtel)",
    "lon": 2.140074,
    "lat": 48.678623,
    "url": ""
  },
  {
    "address": "Église Saint-Pierre, Place du Général de Gaulle, Chaumusson, Les Pavillons, Limours, Palaiseau 91470, France",
    "title": "Église Saint-Pierre de Limours",
    "lon": 2.07773,
    "lat": 48.645729,
    "url": ""
  },
  {
    "address": "Église Saint-Germain-de-Paris, Rue de Janvry, Montvoisin, Gometz-la-Ville, Palaiseau 91400, France",
    "title": "église Saint-Germain de Gometz-la-Ville",
    "lon": 2.125445,
    "lat": 48.671539,
    "url": ""
  },
  {
    "address": "Bibliothèque Municipale de Limours Raymond Queneau, Place Aristide Briand, Chambord, Limours, Palaiseau 91470, France",
    "title": "église orthodoxe roumaine de la Synaxe-de-la-Mère-de-Dieu de Limours",
    "lon": 2.07468,
    "lat": 48.645081,
    "url": ""
  },
  {
    "address": "Château de Villiers-le-Bâcle, Chemin de l'Église, Ferme Vandame, Villiers-le-Bâcle, Palaiseau 91190, France",
    "title": "Château de Villiers-le-Bâcle",
    "lon": 2.128353,
    "lat": 48.724056,
    "url": ""
  },
  {
    "address": "Église Saint-Rémi, Place de l'Église, Gif-sur-Yvette, Palaiseau 91190, France",
    "title": "Église Saint-Rémi de Gif-sur-Yvette",
    "lon": 2.135437,
    "lat": 48.702885,
    "url": ""
  },
  {
    "address": "Château de Vaugien, Chemin de la Glacière, Saint-Rémy-lès-Chevreuse, Rambouillet 78470, France",
    "title": "Château de Vaugien",
    "lon": 2.087713,
    "lat": 48.702206,
    "url": ""
  },
  {
    "address": "Château du Val-Fleury, Allée du Val-Fleury, La Petite Coudraie, Gif-sur-Yvette, Palaiseau 91190, France",
    "title": "Château du Val-Fleury",
    "lon": 2.136154,
    "lat": 48.702007,
    "url": ""
  },
  {
    "address": "Réserve naturelle du val et coteau de Saint-Rémy, Sente d'Etau, Saint-Rémy-lès-Chevreuse, Rambouillet 78470, France",
    "title": "Réserve naturelle du val et coteau de Saint-Rémy",
    "lon": 2.074311,
    "lat": 48.697094,
    "url": ""
  },
  {
    "address": "Golf National, Route Forestière de Mérancy, Le Bois des Roches, Magny-Village, Magny-les-Hameaux, Rambouillet 78114, France",
    "title": "Porte de Mérantais (Magny-les-Hameaux)",
    "lon": 2.078309,
    "lat": 48.747932,
    "url": ""
  },
  {
    "address": "Église Saint-Victor, Place de l'Église, Résidence du Bois de la Grille, Guyancourt, Versailles 78280, France",
    "title": "Église Saint-Victor",
    "lon": 2.070154,
    "lat": 48.771435,
    "url": ""
  },
  {
    "address": "Route des Arcades - Le Grand Pont, Buc, Versailles 78530, France",
    "title": "aqueduc de Buc",
    "lon": 2.13309,
    "lat": 48.773018,
    "url": ""
  },
  {
    "address": "Château du Haut-Buc, Rue Collin Mamet, Buc, Versailles 78530, France",
    "title": "Château du Haut-Buc",
    "lon": 2.123572,
    "lat": 48.770741,
    "url": ""
  },
  {
    "address": "Versailles-Chantiers, Parvis Colonel Arnaud Beltrame, Chantiers, Versailles 78000, France",
    "title": "Versailles-Chantiers",
    "lon": 2.135516,
    "lat": 48.795471,
    "url": ""
  },
  {
    "address": "Gare de Versailles-Chantiers, Rue de la Porte de Buc, Chantiers, Versailles 78000, France",
    "title": "Gare de Versailles-Chantiers",
    "lon": 2.137801,
    "lat": 48.79454,
    "url": ""
  },
  {
    "address": "Musée Lambinet, Boulevard de la Reine, Notre-Dame, Versailles 78000, France",
    "title": "Musée Lambinet",
    "lon": 2.130501,
    "lat": 48.808777,
    "url": ""
  },
  {
    "address": "Théâtre Montansier, Rue des Réservoirs, Notre-Dame, Versailles 78000, France",
    "title": "Théâtre Montansier",
    "lon": 2.124349,
    "lat": 48.808064,
    "url": ""
  },
  {
    "address": "2, Rue Saint-Julien, Saint-Louis, Versailles 78000, France",
    "title": "Hôtel de la Poste (ancien)",
    "lon": 2.121855,
    "lat": 48.802437,
    "url": ""
  },
  {
    "address": "Groupe Scolaire Hoche, Boulevard de la Reine, Notre-Dame, Versailles 78000, France",
    "title": "Lycée Hoche",
    "lon": 2.137486,
    "lat": 48.807205,
    "url": ""
  },
  {
    "address": "Groupe Scolaire Hoche, Boulevard de la Reine, Notre-Dame, Versailles 78000, France",
    "title": "Groupe Scolaire Hoche",
    "lon": 2.137735,
    "lat": 48.807041,
    "url": ""
  },
  {
    "address": "Gare de Versailles Chantiers - Gare Routière, Rue Alexis de Tocqueville, Chantiers, Versailles 78000, France",
    "title": "Gare de Versailles-Chantiers",
    "lon": 2.133617,
    "lat": 48.795509,
    "url": ""
  },
  {
    "address": "Synagogue de Versailles, Rue Albert Joly, Clagny Glatigny, Versailles 78000, France",
    "title": "Synagogue de Versailles",
    "lon": 2.136091,
    "lat": 48.810421,
    "url": ""
  },
  {
    "address": "Église Notre-Dame, Rue Sainte-Geneviève, Notre-Dame, Versailles 78000, France",
    "title": "Church of Notre-Dame, Versailles",
    "lon": 2.129022,
    "lat": 48.807961,
    "url": ""
  },
  {
    "address": "Grandes Écuries, Avenue de Saint-Cloud, Notre-Dame, Versailles 78000, France",
    "title": "Grande Écurie",
    "lon": 2.128563,
    "lat": 48.803772,
    "url": ""
  },
  {
    "address": "Bâtiments du Manège, Place des Manèges, Saint-Louis, Versailles 78000, France",
    "title": "Bâtiments du Manège",
    "lon": 2.128789,
    "lat": 48.801712,
    "url": ""
  },
  {
    "address": "Temple de l'Amour, Allée des Deux Trianons, Notre-Dame, Versailles 78000, France",
    "title": "Temple de l'Amour",
    "lon": 2.112122,
    "lat": 48.81609,
    "url": ""
  },
  {
    "address": "Conservatoire à Rayonnement Régional de Versailles Grand Parc, 24, Rue de la Chancellerie, Saint-Louis, Versailles 78000, France",
    "title": "Conservatoire à Rayonnement Régional de Versailles Grand Parc",
    "lon": 2.124674,
    "lat": 48.801678,
    "url": ""
  },
  {
    "address": "Ancienne Ménagerie, Allée des Deux Trianons, Notre-Dame, Versailles 78000, France",
    "title": "Petit Trianon",
    "lon": 2.107239,
    "lat": 48.815796,
    "url": ""
  },
  {
    "address": "Grand Trianon, Esplanade du Grand Trianon, Notre-Dame, Versailles 78000, France",
    "title": "Trianon-sous-Bois",
    "lon": 2.104624,
    "lat": 48.815674,
    "url": ""
  },
  {
    "address": "Petites Ecuries, Avenue de Sceaux, Saint-Louis, Versailles 78000, France",
    "title": "Petite Écurie du Roi",
    "lon": 2.126234,
    "lat": 48.80265,
    "url": ""
  },
  {
    "address": "Le Petit Trianon, Cour du Petit Trianon, Notre-Dame, Versailles 78000, France",
    "title": "Le Petit Trianon",
    "lon": 2.109717,
    "lat": 48.815582,
    "url": ""
  },
  {
    "address": "Queen's Theatre, Allée des Deux Trianons, Notre-Dame, Versailles 78000, France",
    "title": "Queen's Theatre",
    "lon": 2.108055,
    "lat": 48.815983,
    "url": ""
  },
  {
    "address": "Allée de Bailly, Notre-Dame, Versailles 78000, France",
    "title": "Parc de Versailles",
    "lon": 2.106362,
    "lat": 48.809048,
    "url": ""
  },
  {
    "address": "Le Potager du Roi, Terrasse Nord, Saint-Louis, Satory, Versailles 78000, France",
    "title": "Le Potager du Roi",
    "lon": 2.120962,
    "lat": 48.79781,
    "url": ""
  },
  {
    "address": "Cantine du Lycée Jules Ferry, Allée du Potager, Saint-Louis, Satory, Versailles 78000, France",
    "title": "Parc Balbi",
    "lon": 2.119444,
    "lat": 48.796955,
    "url": ""
  },
  {
    "address": "Place des Francine, Chantiers, Versailles 78000, France",
    "title": "Square des Francine",
    "lon": 2.13161,
    "lat": 48.796696,
    "url": ""
  },
  {
    "address": "Chapel, Cour du Petit Trianon, Notre-Dame, Versailles 78000, France",
    "title": "Chapel",
    "lon": 2.109478,
    "lat": 48.815136,
    "url": ""
  },
  {
    "address": "Église Saint-Symphorien, Rue du Chanoine Boyer, Montreuil, Versailles 78000, France",
    "title": "Église Saint-Symphorien de Versailles",
    "lon": 2.146093,
    "lat": 48.804123,
    "url": ""
  },
  {
    "address": "Petites Ecuries, Avenue de Sceaux, Saint-Louis, Versailles 78000, France",
    "title": "Domaine national : Petites Ecuries",
    "lon": 2.127844,
    "lat": 48.801907,
    "url": ""
  },
  {
    "address": "Porte Saint-Antoine, Allée des Matelots, Notre-Dame, Versailles 78000, France",
    "title": "Porte Saint-Antoine",
    "lon": 2.115377,
    "lat": 48.819855,
    "url": ""
  },
  {
    "address": "Cathédrale Saint-Louis, Rue Saint-Honoré, Saint-Louis, Versailles 78000, France",
    "title": "Versailles Cathedral",
    "lon": 2.124255,
    "lat": 48.798286,
    "url": ""
  },
  {
    "address": "Palace of Versailles, Terrasse, Notre-Dame, Versailles 78000, France",
    "title": "Palace of Versailles",
    "lon": 2.120285,
    "lat": 48.804424,
    "url": ""
  },
  {
    "address": "Péristyle, Cour du Grand Trianon, Notre-Dame, Versailles 78000, France",
    "title": "Grand Trianon",
    "lon": 2.104703,
    "lat": 48.814613,
    "url": ""
  },
  {
    "address": "Grand Trianon, Esplanade du Grand Trianon, Notre-Dame, Versailles 78000, France",
    "title": "Galerie des Cotelle",
    "lon": 2.104831,
    "lat": 48.815269,
    "url": ""
  },
  {
    "address": "Grotte, Cour du Petit Trianon, Notre-Dame, Versailles 78000, France",
    "title": "Grotte",
    "lon": 2.109013,
    "lat": 48.817081,
    "url": ""
  },
  {
    "address": "Solitude, Allée du Rendez-Vous, Notre-Dame, Versailles 78000, France",
    "title": "solitude",
    "lon": 2.108766,
    "lat": 48.820164,
    "url": ""
  },
  {
    "address": "Le hameau de la reine, Allée du Rendez-Vous, Notre-Dame, Versailles 78000, France",
    "title": "Le hameau de la reine",
    "lon": 2.112787,
    "lat": 48.819221,
    "url": ""
  },
  {
    "address": "Salle du Jeu de Paume, Rue du Jeu de Paume, Saint-Louis, Versailles 78000, France",
    "title": "Salle du Jeu de Paume",
    "lon": 2.12387,
    "lat": 48.800999,
    "url": ""
  },
  {
    "address": "Hôtel des Réservoirs, Rue des Réservoirs, Notre-Dame, Versailles 78000, France",
    "title": "Hôtel des Réservoirs",
    "lon": 2.123783,
    "lat": 48.807472,
    "url": ""
  },
  {
    "address": "Chambre de commerce et d'industrie des  Avenue de Paris, Montreuil, Versailles 78000, France",
    "title": "Hôtel de Madame du Barry",
    "lon": 2.135077,
    "lat": 48.801407,
    "url": ""
  },
  {
    "address": "La Maison du Billard, Grange, Notre-Dame, Versailles 78000, France",
    "title": "La maison du Billard",
    "lon": 2.113521,
    "lat": 48.81921,
    "url": ""
  },
  {
    "address": "Versailles-Chantiers, 4, Parvis du Colonel Arnaud Beltrame, Chantiers, Versailles 78000, France",
    "title": "Versailles-Chantiers",
    "lon": 2.135998,
    "lat": 48.795319,
    "url": ""
  },
  {
    "address": "4, Rue Saint-Julien, Saint-Louis, Versailles 78000, France",
    "title": "Grand commun",
    "lon": 2.122078,
    "lat": 48.802963,
    "url": ""
  },
  {
    "address": "Hôtel du Grand Contrôle, 12, Rue de l'Indépendance Américaine, Saint-Louis, Versailles 78000, France",
    "title": "Hôtel du Grand Contrôle",
    "lon": 2.12008,
    "lat": 48.8013,
    "url": ""
  },
  {
    "address": "Pavillon Frais, Allée des Deux Trianons, Notre-Dame, Versailles 78000, France",
    "title": "Pavillon frais",
    "lon": 2.10774,
    "lat": 48.814602,
    "url": ""
  },
  {
    "address": "9, Rue des Récollets, Saint-Louis, Versailles 78000, France",
    "title": "couvent des Récollets (Versailles)",
    "lon": 2.122408,
    "lat": 48.802429,
    "url": ""
  },
  {
    "address": "Lycée militaire de Saint-Cyr, Allée de l'Étoile Royale, Résidence Le Clos Saint Cyr, Saint-Cyr-l'École, Versailles 78210, France",
    "title": "Maison royale de Saint-Louis",
    "lon": 2.066111,
    "lat": 48.800556,
    "url": ""
  },
  {
    "address": "8, Avenue de Paris, Chantiers, Versailles 78000, France",
    "title": "Porte des gendarmes (Versailles)",
    "lon": 2.131171,
    "lat": 48.801399,
    "url": ""
  },
  {
    "address": "Parc du Domaine de Madame Elisabeth, Rue Champ Lagarde, Montreuil, Versailles 78000, France",
    "title": "Domain of Montreuil",
    "lon": 2.1451,
    "lat": 48.800201,
    "url": ""
  },
  {
    "address": "Belvédère, Cour du Petit Trianon, Notre-Dame, Versailles 78000, France",
    "title": "belvédère",
    "lon": 2.10838,
    "lat": 48.8167,
    "url": ""
  },
  {
    "address": "Bibliothèque Centrale, 5, Rue de l'Indépendance Américaine, Saint-Louis, Versailles 78000, France",
    "title": "hôtel des Affaires étrangères et de la Marine",
    "lon": 2.12101,
    "lat": 48.802101,
    "url": ""
  },
  {
    "address": "Allée de la Ceinture, Notre-Dame, Versailles 78000, France",
    "title": "ferme de Gally",
    "lon": 2.081944,
    "lat": 48.818054,
    "url": ""
  },
  {
    "address": "Direction Centrale du Service d'Infrastructure de la Défense, Rue Saint-Julien, Saint-Louis, Versailles 78000, France",
    "title": "hôtel de la Guerre",
    "lon": 2.12135,
    "lat": 48.802399,
    "url": ""
  },
  {
    "address": "Jardin des Musiciens Italiens, Rue Pasteur, Montreuil, Versailles 78000, France",
    "title": "maison des musiciens italiens à Versailles",
    "lon": 2.14655,
    "lat": 48.801498,
    "url": ""
  },
  {
    "address": "Pavillon Français, Allée des Deux Trianons, Notre-Dame, Versailles 78000, France",
    "title": "pavillon français",
    "lon": 2.10747,
    "lat": 48.815201,
    "url": ""
  },
  {
    "address": "Allée de la Reine, Notre-Dame, Versailles 78000, France",
    "title": "Gardens of Versailles",
    "lon": 2.108333,
    "lat": 48.808056,
    "url": ""
  },
  {
    "address": "Bassin du Midi, Terrasse, Notre-Dame, Versailles 78000, France",
    "title": "Versailles domain",
    "lon": 2.119444,
    "lat": 48.805,
    "url": ""
  },
  {
    "address": "Chapelle de l'Hôpital Richaud, Boulevard de la Reine, Notre-Dame, Versailles 78000, France",
    "title": "hôpital Richaud",
    "lon": 2.13419,
    "lat": 48.808201,
    "url": ""
  },
  {
    "address": "Orangerie, Allée du Roy, Notre-Dame, Versailles 78000, France",
    "title": "Orangerie",
    "lon": 2.118991,
    "lat": 48.80315,
    "url": ""
  },
  {
    "address": "Palace of Versailles, Terrasse, Notre-Dame, Versailles 78000, France",
    "title": "Aile Nord",
    "lon": 2.12211,
    "lat": 48.805614,
    "url": ""
  },
  {
    "address": "Bassin de Latone, Партер Латоны, Notre-Dame, Versailles 78000, France",
    "title": "Bassin de Latone",
    "lon": 2.117695,
    "lat": 48.805496,
    "url": ""
  },
  {
    "address": "Palace of Versailles, Terrasse, Notre-Dame, Versailles 78000, France",
    "title": "Museum of the History of France",
    "lon": 2.120846,
    "lat": 48.804302,
    "url": ""
  },
  {
    "address": "Statue équestre de Louis XIV sous les traits de Marcus Curtius, Route des Mulets, Saint-Louis, Satory, Versailles 78000, France",
    "title": "Equestrian Statue of Louis XIV",
    "lon": 2.113234,
    "lat": 48.793861,
    "url": ""
  },
  {
    "address": "Bassin de Flore, Allée de Flore, Notre-Dame, Versailles 78000, France",
    "title": "Bassin de Flore",
    "lon": 2.114683,
    "lat": 48.808186,
    "url": ""
  },
  {
    "address": "Louis XIV, Place d'Armes, Notre-Dame, Versailles 78000, France",
    "title": "Louis XIV",
    "lon": 2.126046,
    "lat": 48.803272,
    "url": ""
  },
  {
    "address": "Grotte, Allée des Prés, Notre-Dame, Versailles 78000, France",
    "title": "Apollon servi par les nymphes",
    "lon": 2.118574,
    "lat": 48.806637,
    "url": ""
  },
  {
    "address": "Lazare Hoche, Place Hoche, Notre-Dame, Versailles 78000, France",
    "title": "Lazare Hoche",
    "lon": 2.127865,
    "lat": 48.806072,
    "url": ""
  },
  {
    "address": "Chapelle Saint-Jean-Hulst, Rue du Maréchal de Lattre de Tassigny, Clagny Glatigny, Versailles 78000, France",
    "title": "Chapelle Saint-Jean-Hulst",
    "lon": 2.13721,
    "lat": 48.818123,
    "url": ""
  },
  {
    "address": "Église Saint-Antoine-de-Padoue, Place Saint-Antoine de Padoue, Le Chesnay, Le Chesnay-Rocquencourt, Versailles 78150, France",
    "title": "Église Saint-Antoine-de-Padoue",
    "lon": 2.1309,
    "lat": 48.818462,
    "url": ""
  },
  {
    "address": "Palace of Versailles, Terrasse, Notre-Dame, Versailles 78000, France",
    "title": "Salles des Croisades",
    "lon": 2.122524,
    "lat": 48.805527,
    "url": ""
  },
  {
    "address": "Direction Départementale des Territoires des  35, Rue de Noailles, Chantiers, Versailles 78000, France",
    "title": "Jardin des Étangs Gobert",
    "lon": 2.132837,
    "lat": 48.796295,
    "url": ""
  },
  {
    "address": "Parterre de Latone, Партер Латоны, Notre-Dame, Versailles 78000, France",
    "title": "Parterre de Latone",
    "lon": 2.116736,
    "lat": 48.805748,
    "url": ""
  },
  {
    "address": "Bosquet de l'Arc de Tromphe, Allée d'Eau, Notre-Dame, Versailles 78000, France",
    "title": "Bosquet de l'Arc de Tromphe",
    "lon": 2.122451,
    "lat": 48.807522,
    "url": ""
  },
  {
    "address": "Palace of Versailles, Terrasse, Notre-Dame, Versailles 78000, France",
    "title": "Opéra royal de Versailles",
    "lon": 2.122547,
    "lat": 48.806087,
    "url": ""
  },
  {
    "address": "Le jardin Français, Allée des Deux Trianons, Notre-Dame, Versailles 78000, France",
    "title": "Petit Trianon",
    "lon": 2.107773,
    "lat": 48.815247,
    "url": ""
  },
  {
    "address": "Jardin anglais, Cour du Petit Trianon, Notre-Dame, Versailles 78000, France",
    "title": "Jardin anglais",
    "lon": 2.110962,
    "lat": 48.816647,
    "url": ""
  },
  {
    "address": "Bassin du Dragon, Allée d'Eau, Notre-Dame, Versailles 78000, France",
    "title": "Bassin du Dragon",
    "lon": 2.1221,
    "lat": 48.80817,
    "url": ""
  },
  {
    "address": "Le Bassin de la Pyramide, Allée d'Eau, Notre-Dame, Versailles 78000, France",
    "title": "Le Bassin de la Pyramide",
    "lon": 2.121068,
    "lat": 48.806496,
    "url": ""
  },
  {
    "address": "Bassin d'Encelade, Allée des Prés, Notre-Dame, Versailles 78000, France",
    "title": "Bassin d'Encelade",
    "lon": 2.112583,
    "lat": 48.808208,
    "url": ""
  },
  {
    "address": "Bassin de Cérès, Allée du Printemps, Notre-Dame, Versailles 78000, France",
    "title": "Bassin de Cérès",
    "lon": 2.117242,
    "lat": 48.807507,
    "url": ""
  },
  {
    "address": "L'Enlèvement de Proserpine par Pluton, Colonnade de Mansart, Notre-Dame, Versailles 78000, France",
    "title": "L'Enlèvement de Proserpine par Pluton",
    "lon": 2.112402,
    "lat": 48.806118,
    "url": ""
  },
  {
    "address": "Rue du Colonel de Bange, Clagny Glatigny, Versailles 78000, France",
    "title": "Cemetery of Notre-Dame, Versailles",
    "lon": 2.130595,
    "lat": 48.814137,
    "url": ""
  },
  {
    "address": "Chantiers, Versailles 78000, France",
    "title": "Cimetière des Gonards",
    "lon": 2.137864,
    "lat": 48.790783,
    "url": ""
  },
  {
    "address": "Église Sainte-Jeanne-d'Arc, Rue Jules Raulin, Clagny Glatigny, Versailles 78000, France",
    "title": "Église Sainte-Jeanne-d'Arc",
    "lon": 2.137525,
    "lat": 48.810982,
    "url": ""
  },
  {
    "address": "Temple de l’Église de Jésus-Christ des Saints des derniers jours, Boulevard Saint-Antoine, Notre-Dame, Versailles 78000, France",
    "title": "Paris France Temple",
    "lon": 2.123012,
    "lat": 48.817863,
    "url": ""
  },
  {
    "address": "Chapelle Royale, Cour Basse de la Chapelle, Notre-Dame, Versailles 78000, France",
    "title": "Chapelle Royale",
    "lon": 2.122182,
    "lat": 48.805023,
    "url": ""
  },
  {
    "address": "Cour des Senteurs, Saint-Louis, Versailles 78000, France",
    "title": "Cour des Senteurs",
    "lon": 2.123058,
    "lat": 48.802803,
    "url": ""
  },
  {
    "address": "SEVESC – Station d’Epuration Carré de Réunion, CD7, Route de Saint-Cyr, Bailly, Versailles 78870, France",
    "title": "Tram 13 Express",
    "lon": 2.08036,
    "lat": 48.818882,
    "url": ""
  },
  {
    "address": "SEVESC – Station d’Epuration Carré de Réunion, CD7, Route de Saint-Cyr, Bailly, Versailles 78870, France",
    "title": "Tram 13 Express",
    "lon": 2.080472,
    "lat": 48.819,
    "url": ""
  },
  {
    "address": "Passerelle couverte, Grange, Notre-Dame, Versailles 78000, France",
    "title": "Passerelle couverte",
    "lon": 2.113527,
    "lat": 48.819103,
    "url": ""
  },
  {
    "address": "Faune au chevreau, Allée du Roy, Notre-Dame, Versailles 78000, France",
    "title": "Bosquet de la Reine",
    "lon": 2.116139,
    "lat": 48.803555,
    "url": ""
  },
  {
    "address": "105BIS, Boulevard de la Reine, Clagny Glatigny, Versailles 78000, France",
    "title": "Château de Clagny",
    "lon": 2.137222,
    "lat": 48.808887,
    "url": ""
  },
  {
    "address": "Dragon, Allée de Bailly, Notre-Dame, Versailles 78000, France",
    "title": "bassin Plat fond",
    "lon": 2.100833,
    "lat": 48.816113,
    "url": ""
  },
  {
    "address": "Allée de Bailly, Notre-Dame, Versailles 78000, France",
    "title": "bassin du Fer-à-cheval",
    "lon": 2.1025,
    "lat": 48.814445,
    "url": ""
  },
  {
    "address": "Les Domes, Allée de Flore, Notre-Dame, Versailles 78000, France",
    "title": "bosquet des Dômes",
    "lon": 2.1134,
    "lat": 48.807499,
    "url": ""
  },
  {
    "address": "Allée du Mail, Saint-Louis, Satory, Versailles 78000, France",
    "title": "Pièce d'eau des Suisses",
    "lon": 2.11583,
    "lat": 48.7981,
    "url": ""
  },
  {
    "address": "L'Enlèvement de Proserpine par Pluton, Colonnade de Mansart, Notre-Dame, Versailles 78000, France",
    "title": "bosquet de la Colonnade",
    "lon": 2.112422,
    "lat": 48.806198,
    "url": ""
  },
  {
    "address": "Palace of Versailles, Terrasse, Notre-Dame, Versailles 78000, France",
    "title": "Galerie des Batailles",
    "lon": 2.120833,
    "lat": 48.804443,
    "url": ""
  },
  {
    "address": "Bassin du Dragon, Allée d'Eau, Notre-Dame, Versailles 78000, France",
    "title": "Neptune Fountain",
    "lon": 2.122222,
    "lat": 48.808887,
    "url": ""
  },
  {
    "address": "Обелиск, Chemin de la Fontaine de l'Obélisque, Notre-Dame, Versailles 78000, France",
    "title": "bosquet de l'Obélisque",
    "lon": 2.11367,
    "lat": 48.809502,
    "url": ""
  },
  {
    "address": "Allée Sombre, Notre-Dame, Versailles 78000, France",
    "title": "bosquet des Trois-Fontaines",
    "lon": 2.120833,
    "lat": 48.807499,
    "url": ""
  },
  {
    "address": "Notre-Dame, Versailles 78000, France",
    "title": "bosquet de l'Encelade",
    "lon": 2.1125,
    "lat": 48.808056,
    "url": ""
  },
  {
    "address": "Allée du Printemps, Notre-Dame, Versailles 78000, France",
    "title": "bosquet de l'Étoile",
    "lon": 2.11648,
    "lat": 48.808701,
    "url": ""
  },
  {
    "address": "Minerve, Партер Латоны, Notre-Dame, Versailles 78000, France",
    "title": "bosquet de la Girandole",
    "lon": 2.114439,
    "lat": 48.805401,
    "url": ""
  },
  {
    "address": "Grotte, Allée des Prés, Notre-Dame, Versailles 78000, France",
    "title": "bosquet des Bains d'Apollon",
    "lon": 2.118183,
    "lat": 48.806801,
    "url": ""
  },
  {
    "address": "Le Char du Soleil, Allée d'Apollon, Notre-Dame, Versailles 78000, France",
    "title": "Bassin d'Apollon",
    "lon": 2.11078,
    "lat": 48.807339,
    "url": ""
  },
  {
    "address": "Allée du Printemps, Notre-Dame, Versailles 78000, France",
    "title": "bosquet du Dauphin",
    "lon": 2.115556,
    "lat": 48.806946,
    "url": ""
  },
  {
    "address": "Allée du Petit Pont, Notre-Dame, Versailles 78000, France",
    "title": "water theatre grove",
    "lon": 2.118967,
    "lat": 48.80798,
    "url": ""
  },
  {
    "address": "13, Boulevard de la Reine, Notre-Dame, Versailles 78000, France",
    "title": "La Renommée du Roi",
    "lon": 2.12333,
    "lat": 48.809799,
    "url": ""
  },
  {
    "address": "Vénus Médicis, Allée Royale, Notre-Dame, Versailles 78000, France",
    "title": "Tapis vert",
    "lon": 2.11362,
    "lat": 48.806599,
    "url": ""
  },
  {
    "address": "Le Point du Jour, Партер Латоны, Notre-Dame, Versailles 78000, France",
    "title": "Fontaine du Point du Jour",
    "lon": 2.11814,
    "lat": 48.804699,
    "url": ""
  },
  {
    "address": "Pavillon de Jussieu, Allée des Deux Trianons, Notre-Dame, Versailles 78000, France",
    "title": "bassin du Trèfle",
    "lon": 2.106389,
    "lat": 48.817223,
    "url": ""
  },
  {
    "address": "Femme drapée, Allée du Mail, Notre-Dame, Versailles 78000, France",
    "title": "bassin du Miroir",
    "lon": 2.1125,
    "lat": 48.80389,
    "url": ""
  },
  {
    "address": "Groupe Scolaire Hoche, Boulevard de la Reine, Notre-Dame, Versailles 78000, France",
    "title": "Chapelle du Lycée Hoche de Versailles",
    "lon": 2.13722,
    "lat": 48.8069,
    "url": ""
  },
  {
    "address": "Grandes Écuries, Avenue de Saint-Cloud, Notre-Dame, Versailles 78000, France",
    "title": "The Coach Gallery",
    "lon": 2.12829,
    "lat": 48.803799,
    "url": ""
  },
  {
    "address": "23, Rue de Trianon, Le Chesnay, Le Chesnay-Rocquencourt, Versailles 78150, France",
    "title": "Battle of Rocquencourt",
    "lon": 2.1311,
    "lat": 48.821098,
    "url": ""
  },
  {
    "address": "Parterre du Nord, Allée des Prés, Notre-Dame, Versailles 78000, France",
    "title": "bain des Nymphes",
    "lon": 2.121175,
    "lat": 48.80669,
    "url": ""
  },
  {
    "address": "Minerve, Allée de l'Automne, Notre-Dame, Versailles 78000, France",
    "title": "bassin de Bacchus",
    "lon": 2.115278,
    "lat": 48.804165,
    "url": ""
  },
  {
    "address": "Allée de Saturne, Notre-Dame, Versailles 78000, France",
    "title": "Bassin de Saturne, ou de l'Hiver",
    "lon": 2.112778,
    "lat": 48.805,
    "url": ""
  },
  {
    "address": "Marsyas et Olympe, Allée du Roy, Notre-Dame, Versailles 78000, France",
    "title": "bosquet des Rocailles",
    "lon": 2.116861,
    "lat": 48.804111,
    "url": ""
  },
  {
    "address": "Group info point, Cour d'Honneur, Notre-Dame, Versailles 78000, France",
    "title": "Bust of Louis XIV",
    "lon": 2.123139,
    "lat": 48.80439,
    "url": ""
  },
  {
    "address": "Bassin de Latone, Партер Латоны, Notre-Dame, Versailles 78000, France",
    "title": "Latona Fountain",
    "lon": 2.117685,
    "lat": 48.805504,
    "url": ""
  },
  {
    "address": "Pavillon de musique de la Comtesse du Barry, Chemin de la Machine, Louveciennes, Saint-Germain-en-Laye 78430, France",
    "title": "Pavillon de musique de la Comtesse du Barry",
    "lon": 2.12312,
    "lat": 48.868652,
    "url": ""
  },
  {
    "address": "Château de la Celle, Avenue Charles de Gaulle, La Celle-Saint-Cloud, Versailles 78170, France",
    "title": "Château de la Celle",
    "lon": 2.140539,
    "lat": 48.852016,
    "url": ""
  },
  {
    "address": "Château du Pont, Rue du Pont, Louveciennes, Saint-Germain-en-Laye 78430, France",
    "title": "Château du Pont (Louveciennes)",
    "lon": 2.117916,
    "lat": 48.858185,
    "url": ""
  },
  {
    "address": "Château de Voisins, Rue de Voisins, Louveciennes, Saint-Germain-en-Laye 78430, France",
    "title": "Château de Voisins (Louveciennes)",
    "lon": 2.11527,
    "lat": 48.866215,
    "url": ""
  },
  {
    "address": "Paroisse Saint-Martin de Louveciennes, Rue du Professeur Tuffier, Louveciennes, Saint-Germain-en-Laye 78430, France",
    "title": "Paroisse Saint-Martin de Louveciennes",
    "lon": 2.114211,
    "lat": 48.860935,
    "url": ""
  },
  {
    "address": "Église Saint-Vigor, Allée André Contenay, Marly-le-Roi, Saint-Germain-en-Laye 78160, France",
    "title": "Église Saint-Vigor",
    "lon": 2.09303,
    "lat": 48.866482,
    "url": ""
  },
  {
    "address": "Château de Marly-le-Roi, Route de la Grille Royale, Marly-le-Roi, Saint-Germain-en-Laye 78160, France",
    "title": "Château de Marly",
    "lon": 2.098325,
    "lat": 48.860672,
    "url": ""
  },
  {
    "address": "Musée du Domaine royal de Marly, 1, Route de la Grille Royale, Marly-le-Roi, Saint-Germain-en-Laye 78160, France",
    "title": "domaine national de Marly-le-Roi",
    "lon": 2.105502,
    "lat": 48.858929,
    "url": ""
  },
  {
    "address": "Église Notre-Dame, 1, Rue de la Croix aux Vents, Bougival, Versailles 78380, France",
    "title": "Église Notre-Dame",
    "lon": 2.140324,
    "lat": 48.863422,
    "url": ""
  },
  {
    "address": "Église Sainte-Anne, Rue Jean Mermoz, L'Étang-la-Ville, Saint-Germain-en-Laye 78620, France",
    "title": "église Sainte-Anne de l'Étang-la-Ville",
    "lon": 2.073973,
    "lat": 48.870098,
    "url": ""
  },
  {
    "address": "Élysée 2, Résidence Élysée 2, La Celle-Saint-Cloud, Versailles 78170, France",
    "title": "villa Viardot",
    "lon": 2.1475,
    "lat": 48.863201,
    "url": ""
  },
  {
    "address": "Pavillon de musique de la Comtesse du Barry, Chemin de la Machine, Louveciennes, Saint-Germain-en-Laye 78430, France",
    "title": "Château de Louveciennes",
    "lon": 2.123055,
    "lat": 48.86861,
    "url": ""
  },
  {
    "address": "6, Allée de la Tour du Jongleur, Louveciennes, Saint-Germain-en-Laye 78430, France",
    "title": "Aqueduc de Louveciennes",
    "lon": 2.10833,
    "lat": 48.861561,
    "url": ""
  },
  {
    "address": "Pavillon du Butard, Chemin du Butard, La Celle-Saint-Cloud, Versailles 78170, France",
    "title": "Pavillon du Butard",
    "lon": 2.143097,
    "lat": 48.840042,
    "url": ""
  },
  {
    "address": "Les Chevaux de Marly, Terrasse, Marly-le-Roi, Saint-Germain-en-Laye 78160, France",
    "title": "Les Chevaux de Marly",
    "lon": 2.101638,
    "lat": 48.86623,
    "url": ""
  },
  {
    "address": "Les Chevaux de Marly, Terrasse, Marly-le-Roi, Saint-Germain-en-Laye 78160, France",
    "title": "Les Chevaux de Marly",
    "lon": 2.100825,
    "lat": 48.866409,
    "url": ""
  },
  {
    "address": "Notre-Dame de la Résurrection, Square Vivaldi, Le Chesnay, Le Chesnay-Rocquencourt, Versailles 78150, France",
    "title": "Notre-Dame de la Résurrection",
    "lon": 2.123515,
    "lat": 48.825871,
    "url": ""
  },
  {
    "address": "Église Saint-Germain, Rue Jean-Louis Forain, Le Petit Parc, Le Chesnay, Le Chesnay-Rocquencourt, Versailles 78150, France",
    "title": "Église Saint-Germain",
    "lon": 2.122229,
    "lat": 48.831451,
    "url": ""
  },
  {
    "address": "Franprix, Place du Comte de Bendern, La Celle-Saint-Cloud, Versailles 78170, France",
    "title": "Château de Beauregard, La Celle-Saint-Cloud",
    "lon": 2.124303,
    "lat": 48.840805,
    "url": ""
  },
  {
    "address": "Musée Tourguéniev, Rue Yvan Tourgueneff, Bougival, Versailles 78380, France",
    "title": "Musée Tourguéniev",
    "lon": 2.147392,
    "lat": 48.866451,
    "url": ""
  },
  {
    "address": "Ancien fort du Trou d'enfer, Route de Maintenon, Bailly, Versailles 78870, France",
    "title": "Ancien fort du Trou d'enfer",
    "lon": 2.086306,
    "lat": 48.848682,
    "url": ""
  },
  {
    "address": "Château de Louveciennes, Rue du Général Leclerc, Louveciennes, Saint-Germain-en-Laye 78430, France",
    "title": "Louveciennes",
    "lon": 2.115112,
    "lat": 48.861511,
    "url": ""
  },
  {
    "address": "D 307, Les Sentes, Les Moulinaux, Bailly, Versailles 78870, France",
    "title": "Tram 13 Express",
    "lon": 2.077236,
    "lat": 48.835136,
    "url": ""
  },
  {
    "address": "Bougival, Versailles 78380, France",
    "title": "passerelle de l'île de la Loge",
    "lon": 2.13031,
    "lat": 48.869701,
    "url": ""
  },
  {
    "address": "Arboretum de Chèvreloup, Route de Versailles, Rocquencourt, Le Chesnay-Rocquencourt, Versailles 78150, France",
    "title": "Arboretum de Chèvreloup",
    "lon": 2.111667,
    "lat": 48.830276,
    "url": ""
  },
  {
    "address": "Domaine de Monte-Cristo, Avenue du Président J.-F. Kennedy, Le Port-Marly, Saint-Germain-en-Laye 78560, France",
    "title": "Domaine de Monte-Cristo",
    "lon": 2.103321,
    "lat": 48.885487,
    "url": ""
  },
  {
    "address": "Église Saint-Wandrille, Rue de Paris, Le Pecq, Saint-Germain-en-Laye 78230, France",
    "title": "Église Saint-Wandrille",
    "lon": 2.102357,
    "lat": 48.895893,
    "url": ""
  },
  {
    "address": "Machine de Marly, Quai Rennequin-Sualem, Bougival, Versailles 78380, France",
    "title": "Machine de Marly",
    "lon": 2.124767,
    "lat": 48.870697,
    "url": ""
  },
  {
    "address": "Château de Monte-Cristo, Avenue du Président J.-F. Kennedy, Le Port-Marly, Saint-Germain-en-Laye 78560, France",
    "title": "Château de Monte-Cristo",
    "lon": 2.103469,
    "lat": 48.885601,
    "url": ""
  },
  {
    "address": "Maison Claude Debussy, 38, Rue au Pain, Saint-Germain-en-Laye 78100, France",
    "title": "Musée Claude-Debussy",
    "lon": 2.092697,
    "lat": 48.896851,
    "url": ""
  },
  {
    "address": "Église Saint-Étienne, Rue Tellier Frères, Mareil-Marly, Saint-Germain-en-Laye 78750, France",
    "title": "église Saint-Étienne de Mareil-Marly",
    "lon": 2.078007,
    "lat": 48.881725,
    "url": ""
  },
  {
    "address": "Château de Saint-Germain-en-Laye, Rue Thiers, Saint-Germain-en-Laye 78100, France",
    "title": "Château de Saint-Germain-en-Laye",
    "lon": 2.095603,
    "lat": 48.897903,
    "url": ""
  },
  {
    "address": "Église Sainte-Marguerite, Place de l'Église, Le Vésinet, Saint-Germain-en-Laye 78110, France",
    "title": "Église Sainte-Marguerite",
    "lon": 2.133888,
    "lat": 48.892391,
    "url": ""
  },
  {
    "address": "Église Saint-Germain, Place Charles de Gaulle, Saint-Germain-en-Laye 78100, France",
    "title": "Église Saint-Germain",
    "lon": 2.094219,
    "lat": 48.897713,
    "url": ""
  },
  {
    "address": "Église Saint-Louis, 42, Rue de Versailles, Le Port-Marly, Saint-Germain-en-Laye 78560, France",
    "title": "Église Saint-Louis de Port-Marly",
    "lon": 2.10682,
    "lat": 48.877956,
    "url": ""
  },
  {
    "address": "Maison Claude Debussy, 38, Rue au Pain, Saint-Germain-en-Laye 78100, France",
    "title": "Maison Claude Debussy",
    "lon": 2.09271,
    "lat": 48.896873,
    "url": ""
  },
  {
    "address": "Résidence Les Lavandières, Saint-Germain-en-Laye 78100, France",
    "title": "Viaduc du Val-Saint-Léger",
    "lon": 2.071248,
    "lat": 48.897064,
    "url": ""
  },
  {
    "address": "Viaduc de la Vallée, Chemin de Barnes, Le Pecq, Saint-Germain-en-Laye 78230, France",
    "title": "viaduc ferroviaire du Pecq",
    "lon": 2.11111,
    "lat": 48.903099,
    "url": ""
  },
  {
    "address": "La Hublotière, Route de Montesson, Le Vésinet, Saint-Germain-en-Laye 78110, France",
    "title": "villa Berthe",
    "lon": 2.11867,
    "lat": 48.8993,
    "url": ""
  },
  {
    "address": "Pavillon Henri-IV, Allée Henri IV, Saint-Germain-en-Laye 78100, France",
    "title": "Chateau-Neuf de Saint-Germain-en-Laye",
    "lon": 2.101111,
    "lat": 48.898056,
    "url": ""
  },
  {
    "address": "19, Rue Diderot, Le Vésinet, Saint-Germain-en-Laye 78110, France",
    "title": "Palais Rose in Vésinet",
    "lon": 2.1267,
    "lat": 48.897202,
    "url": ""
  },
  {
    "address": "Hôtel de Ville, 13, Avenue Simon Vouet, Le Port-Marly, Saint-Germain-en-Laye 78560, France",
    "title": "château des Lions",
    "lon": 2.11149,
    "lat": 48.878399,
    "url": ""
  },
  {
    "address": "3, Place Georges Guynemer, Saint-Germain-en-Laye 78100, France",
    "title": "ancient cemetery of Saint-Germain-en-Laye",
    "lon": 2.082151,
    "lat": 48.901031,
    "url": ""
  },
  {
    "address": "Église Saint-Léonard, 15, Avenue du Maréchal Foch, Croissy-sur-Seine, Saint-Germain-en-Laye 78290, France",
    "title": "église Saint-Léonard de Croissy-sur-Seine",
    "lon": 2.14655,
    "lat": 48.879387,
    "url": ""
  },
  {
    "address": "Allée couverte de Conflans, Cour Intérieure, Saint-Germain-en-Laye 78100, France",
    "title": "Conflans gallery grave",
    "lon": 2.095387,
    "lat": 48.898052,
    "url": ""
  },
  {
    "address": "Musée départemental Maurice Denis, 2bis, Rue Maurice Denis, Saint-Germain-en-Laye 78100, France",
    "title": "Musée départemental Maurice Denis \"The Priory\"",
    "lon": 2.086889,
    "lat": 48.892593,
    "url": ""
  },
  {
    "address": "Allée couverte du Trou aux Anglais, Cour Intérieure, Saint-Germain-en-Laye 78100, France",
    "title": "Trou aux Anglais gallery grave",
    "lon": 2.09554,
    "lat": 48.898159,
    "url": ""
  },
  {
    "address": "Pont Georges Pompidou, Chemin de Barnes, Le Pecq, Saint-Germain-en-Laye 78230, France",
    "title": "Pont Georges Pompidou",
    "lon": 2.108636,
    "lat": 48.897903,
    "url": ""
  },
  {
    "address": "Chapelle Palatine, Cour Intérieure, Saint-Germain-en-Laye 78100, France",
    "title": "National Archaeological Museum",
    "lon": 2.09611,
    "lat": 48.897781,
    "url": ""
  },
  {
    "address": "Église St Léger, 20, Rue de la Maison Verte, Saint-Germain-en-Laye 78100, France",
    "title": "Église Saint-Léger de Saint-Germain-en-Laye",
    "lon": 2.0793,
    "lat": 48.8941,
    "url": ""
  },
  {
    "address": "Chemin de la Digue, Carrières-sous-Bois, Le Mesnil-le-Roi, Saint-Germain-en-Laye 78600, France",
    "title": "Zone agricole de Carrières-sous-Bois-Les Flageaux",
    "lon": 2.1153,
    "lat": 48.914001,
    "url": ""
  },
  {
    "address": "5, Rue de Fonton, L'Étang-la-Ville, Saint-Germain-en-Laye 78620, France",
    "title": "allée couverte du Cher Arpent",
    "lon": 2.0721,
    "lat": 48.8708,
    "url": ""
  },
  {
    "address": "Château du Val, Route de la Grille Royale, Saint-Germain-en-Laye 78100, France",
    "title": "le chateau du val",
    "lon": 2.106259,
    "lat": 48.92115,
    "url": ""
  },
  {
    "address": "Maison Doulton, Avenue Pascal, Maisons-Laffitte, Saint-Germain-en-Laye 78600, France",
    "title": "maison Doulton",
    "lon": 2.13804,
    "lat": 48.957001,
    "url": ""
  },
  {
    "address": "11BIS, Avenue Albine, Place du Château, Maisons-Laffitte, Saint-Germain-en-Laye 78600, France",
    "title": "parc de Maisons-Laffitte",
    "lon": 2.14389,
    "lat": 48.9524,
    "url": ""
  },
  {
    "address": "72, Rue de Paris, Place du Château, Maisons-Laffitte, Saint-Germain-en-Laye 78600, France",
    "title": "pavillon au 72 rue de Paris",
    "lon": 2.148,
    "lat": 48.947739,
    "url": ""
  },
  {
    "address": "Grille du Parc, Avenue Eglé, Place du Château, Maisons-Laffitte, Saint-Germain-en-Laye 78600, France",
    "title": "portes de Maisons-Laffitte",
    "lon": 2.14763,
    "lat": 48.947899,
    "url": ""
  },
  {
    "address": "Croix de Noailles, Route de Poissy, Saint-Germain-en-Laye 78100, France",
    "title": "croix de Noailles",
    "lon": 2.09652,
    "lat": 48.939503,
    "url": ""
  },
  {
    "address": "4, Avenue Bourdaloue, Maisons-Laffitte, Saint-Germain-en-Laye 78600, France",
    "title": "pavillon des Gardes",
    "lon": 2.13658,
    "lat": 48.957062,
    "url": ""
  },
  {
    "address": "2, Rue de la Muette, Place du Château, Maisons-Laffitte, Saint-Germain-en-Laye 78600, France",
    "title": "pavillon, 2 rue de la Muette",
    "lon": 2.1474,
    "lat": 48.948101,
    "url": ""
  },
  {
    "address": "36BIS, Rue de la Muette, Place du Château, Maisons-Laffitte, Saint-Germain-en-Laye 78600, France",
    "title": "immeuble, 36bis rue de la Muette",
    "lon": 2.1397,
    "lat": 48.952,
    "url": ""
  },
  {
    "address": "Caves du Nord, Route de Brancas, Saint-Germain-en-Laye, Maisons-Laffitte, Saint-Germain-en-Laye 78600, France",
    "title": "Les Caves du Nord",
    "lon": 2.13481,
    "lat": 48.957199,
    "url": ""
  },
  {
    "address": "37, Avenue Albine, Place du Château, Maisons-Laffitte, Saint-Germain-en-Laye 78600, France",
    "title": "maison au 39 avenue Albine",
    "lon": 2.1405,
    "lat": 48.953812,
    "url": ""
  },
  {
    "address": "Chemin de Halage, Le Pecq, Saint-Germain-en-Laye 78230, France",
    "title": "Étang de l'Épinoche",
    "lon": 2.125,
    "lat": 48.919998,
    "url": ""
  },
  {
    "address": "Church on a barge \"Je Sers\" (\"I serve\"), Quai de la République, Vieux Conflans, Conflans-Sainte-Honorine, Saint-Germain-en-Laye 78700, France",
    "title": "Church on a barge \"Je Sers\" (\"I serve\")",
    "lon": 2.085517,
    "lat": 48.990025,
    "url": ""
  },
  {
    "address": "Canal transport museum, 3, Place Jules Gevelot, Vieux Conflans, Conflans-Sainte-Honorine, Saint-Germain-en-Laye 78700, France",
    "title": "Canal transport museum",
    "lon": 2.095731,
    "lat": 48.9925,
    "url": ""
  },
  {
    "address": "Église Saint-Maclou, Place de l'Église, Vieux Conflans, Conflans-Sainte-Honorine, Saint-Germain-en-Laye 78700, France",
    "title": "Église Saint-Maclou",
    "lon": 2.094824,
    "lat": 48.992168,
    "url": ""
  },
  {
    "address": "Pont-Jarny, Quai Eugène Le Corre, Conflans-Rive Gauche, Fin d'Oise, Conflans-Sainte-Honorine, Saint-Germain-en-Laye 78700, France",
    "title": "Pont ferroviaire de Conflans-Sainte-Honorine",
    "lon": 2.07528,
    "lat": 48.9869,
    "url": ""
  },
  {
    "address": "Halte fluviale de Conflans, Promenade François Mitterrand, Vieux Conflans, Conflans-Sainte-Honorine, Saint-Germain-en-Laye 78700, France",
    "title": "Jacques",
    "lon": 2.096186,
    "lat": 48.991482,
    "url": ""
  },
  {
    "address": "Pavillon de la Muette, Avenue de la Muette, Saint-Germain-en-Laye 78100, France",
    "title": "pavillon de la Muette",
    "lon": 2.1175,
    "lat": 48.964199,
    "url": ""
  },
  {
    "address": "Rue des Fromentaux, Vieux Conflans, Conflans-Sainte-Honorine, Saint-Germain-en-Laye 78700, France",
    "title": "musée de la batellerie",
    "lon": 2.09556,
    "lat": 48.9925,
    "url": ""
  },
  {
    "address": "Église Saint-Ouen, Avenue de Verdun, Saint-Ouen-l'Aumône, Pontoise 95310, France",
    "title": "église Saint-Ouen de Saint-Ouen-l'Aumône",
    "lon": 2.104678,
    "lat": 49.039162,
    "url": ""
  },
  {
    "address": "Cathédrale Saint-Maclou, Rue de l'Hôtel de Ville, Centre-Ville, Pontoise 95300, France",
    "title": "Pontoise Cathedral",
    "lon": 2.09718,
    "lat": 49.050579,
    "url": ""
  },
  {
    "address": "Église Notre-Dame, Place Notre-Dame, Notre-Dame, Pontoise 95300, France",
    "title": "Église Notre-Dame",
    "lon": 2.09236,
    "lat": 49.049408,
    "url": ""
  },
  {
    "address": "Utopia Pontoise, 1, Place Pierre Mendès France, Saint-Ouen-l'Aumône, Pontoise 95310, France",
    "title": "Utopia Pontoise",
    "lon": 2.099272,
    "lat": 49.049301,
    "url": ""
  },
  {
    "address": "Ancienne abbaye de Maubuisson, Rue Alexandre Prachay, Saint-Ouen-l'Aumône, Pontoise 95310, France",
    "title": "Ancienne abbaye de Maubuisson",
    "lon": 2.116717,
    "lat": 49.046242,
    "url": ""
  },
  {
    "address": "Musée Tavet Delacour, Rue Lemercier, Centre-Ville, Pontoise 95300, France",
    "title": "Musée Tavet Delacour",
    "lon": 2.099658,
    "lat": 49.051102,
    "url": ""
  },
  {
    "address": "Carmel, 55, Rue Pierre Butin, Centre-Ville, Pontoise 95300, France",
    "title": "Carmel",
    "lon": 2.097288,
    "lat": 49.048862,
    "url": ""
  },
  {
    "address": "Colombier, Avenue de Verdun, Saint-Ouen-l'Aumône, Pontoise 95310, France",
    "title": "colombier de Saint-Ouen-l'Aumône",
    "lon": 2.10481,
    "lat": 49.040039,
    "url": ""
  },
  {
    "address": "Musée Camille Pissarro, 17, Rue du Château, Centre-Ville, Pontoise 95300, France",
    "title": "Musée Camille Pissarro",
    "lon": 2.099953,
    "lat": 49.048237,
    "url": ""
  },
  {
    "address": "Utopia Saint-Ouen l'Aumone, 1, Place Pierre Mendès France, Saint-Ouen-l'Aumône, Pontoise 95310, France",
    "title": "Utopia Saint-Ouen l'Aumone",
    "lon": 2.107159,
    "lat": 49.043694,
    "url": ""
  },
  {
    "address": "Malebranche / Château, Avenue Jean Mermoz, Saint-Martin, Pontoise 95300, France",
    "title": "abbaye Saint-Martin de Pontoise",
    "lon": 2.093101,
    "lat": 49.042202,
    "url": ""
  },
  {
    "address": "Direction de l'Action Sociale, Rue Lemercier, Centre-Ville, Pontoise 95300, France",
    "title": "musée Tavet-Delacour",
    "lon": 2.09972,
    "lat": 49.0508,
    "url": ""
  },
  {
    "address": "Musée Tavet Delacour, Rue Lemercier, Centre-Ville, Pontoise 95300, France",
    "title": "Allée couverte de Dampont",
    "lon": 2.09963,
    "lat": 49.050949,
    "url": ""
  },
  {
    "address": "Église Saint-Clair, Place de l'Église, Hérouville-en-Vexin, Pontoise 95300, France",
    "title": "Église Saint-Clair d'Hérouville",
    "lon": 2.131938,
    "lat": 49.100769,
    "url": ""
  },
  {
    "address": "Église Saint-Aubin, Avenue Gaston de Lévis, Ennery, Pontoise 95300, France",
    "title": "Église Saint-Aubin",
    "lon": 2.105347,
    "lat": 49.0769,
    "url": ""
  },
  {
    "address": "Château d'Ennery, Chemin du Clos Michaud, Ennery, Pontoise 95300, France",
    "title": "Château d'Ennery",
    "lon": 2.10358,
    "lat": 49.077579,
    "url": ""
  },
  {
    "address": "Rue Paul Bagnard, Hérouville-en-Vexin, Pontoise 95300, France",
    "title": "Château d'Hérouville",
    "lon": 2.133055,
    "lat": 49.101665,
    "url": ""
  },
  {
    "address": "Villa Castel Val, Rue des Meulières, Les Rémys, Chaponval, Auvers-sur-Oise, Pontoise 95430, France",
    "title": "Castel Val",
    "lon": 2.147881,
    "lat": 49.071793,
    "url": ""
  },
  {
    "address": "Route de Mauzaise, La Boissière-École, Rambouillet 78125, France",
    "title": "chapelle funéraire de la famille Hériot",
    "lon": 1.63926,
    "lat": 48.684502,
    "url": ""
  },
  {
    "address": "Église Saint-Martin, 3, Grande Rue, Labbeville, Pontoise 95690, France",
    "title": "église Saint-Martin de Labbeville",
    "lon": 2.145031,
    "lat": 49.136417,
    "url": ""
  },
  {
    "address": "Église Saint-Martin, Sente du Grand Fond, Vallangoujard, Pontoise 95810, France",
    "title": "église Saint-Martin de Vallangoujard",
    "lon": 2.113068,
    "lat": 49.138176,
    "url": ""
  },
  {
    "address": "Église Saint-Pierre, Rue de la Remise, Intville-la-Guétard, Pithiviers 45300, France",
    "title": "église Saint-Pierre d'Intville-la-Guétard",
    "lon": 2.212761,
    "lat": 48.260944,
    "url": ""
  },
  {
    "address": "Thignonville, Pithiviers 45300, France",
    "title": "château de Beauclair",
    "lon": 2.1765,
    "lat": 48.257,
    "url": ""
  },
  {
    "address": "Église Saint-Martin et Saint-Loup, Place Saint-Martin, Sermaises, Pithiviers 45300, France",
    "title": "Église Saint-Martin et Saint-Loup",
    "lon": 2.204092,
    "lat": 48.295311,
    "url": ""
  },
  {
    "address": "SNC Ferme d'Enzanville Beulin-Mercier, 25, Impasse de la Bergerie, Enzanville, Sermaises, Pithiviers 45300, France",
    "title": "château d'Enzanville",
    "lon": 2.23228,
    "lat": 48.308498,
    "url": ""
  },
  {
    "address": "2, Place Saint-Julien, Abbéville-la-Rivière, Étampes 91150, France",
    "title": "église Saint-Julien-le-Pauvre d'Abbéville-la-Rivière",
    "lon": 2.1665,
    "lat": 48.346058,
    "url": ""
  },
  {
    "address": "D 145, Saint-Cyr-la-Rivière, Étampes 91690, France",
    "title": "monument aux morts de Saint-Cyr-la-Rivière",
    "lon": 2.1513,
    "lat": 48.354301,
    "url": ""
  },
  {
    "address": "Église Saint-Hilaire, Rue de la République, Le Village, Boissy-la-Rivière, Étampes 91690, France",
    "title": "Église Saint-Hilaire",
    "lon": 2.154778,
    "lat": 48.374847,
    "url": ""
  },
  {
    "address": "Église Saint-Gilles, Rue du Vicariat, Les Hautes Garces, Étampes 91150, France",
    "title": "Église Saint-Gilles d'Étampes",
    "lon": 2.153641,
    "lat": 48.432148,
    "url": ""
  },
  {
    "address": "Église Notre-Dame-du-Fort, Rue de la République, Étampes 91150, France",
    "title": "Église Notre-Dame-du-Fort",
    "lon": 2.164122,
    "lat": 48.435043,
    "url": ""
  },
  {
    "address": "Tour Guinette, Promenade de Guinette, Étampes 91150, France",
    "title": "Tour Guinette",
    "lon": 2.158463,
    "lat": 48.437622,
    "url": ""
  },
  {
    "address": "Église Saint-Basile, Rue Sainte-Croix, Étampes 91150, France",
    "title": "Église Saint-Basile",
    "lon": 2.161094,
    "lat": 48.435909,
    "url": ""
  },
  {
    "address": "Église de la Sainte-Trinité, Place de l'Église, Morigny-Champigny, Étampes 91150, France",
    "title": "abbaye de la Sainte-Trinité de Morigny",
    "lon": 2.18234,
    "lat": 48.447998,
    "url": ""
  },
  {
    "address": "Église Saint-Georges, Rue de la Rivière, Auvers-Saint-Georges, Étampes 91580, France",
    "title": "Église Saint-Georges d'Auvers-Saint-Georges",
    "lon": 2.217424,
    "lat": 48.49247,
    "url": ""
  },
  {
    "address": "Église Saint-Étienne, Place Charles de Gaulle, Étréchy, Étampes 91580, France",
    "title": "Église Saint-Étienne",
    "lon": 2.190013,
    "lat": 48.493343,
    "url": ""
  },
  {
    "address": "Polissoir de la Petite-Garenne, Chemin de la Planche Folle, Les Monceaux, Morigny-Champigny, Étampes 91150, France",
    "title": "polissoir de la Petite-Garenne",
    "lon": 2.1884,
    "lat": 48.457802,
    "url": ""
  },
  {
    "address": "Réserve naturelle des sites géologiques de l' Étréchy, Étampes 91580, France",
    "title": "Réserve naturelle des sites géologiques de l'Essonne",
    "lon": 2.199651,
    "lat": 48.453892,
    "url": ""
  },
  {
    "address": "Château de Jeurre, Route Nationale de Paris à Toulouse, Zone Industrielle des Rochettes, Morigny-Champigny, Étampes 91150, France",
    "title": "parc de Jeurre",
    "lon": 2.18776,
    "lat": 48.468399,
    "url": ""
  },
  {
    "address": "Square Duval, Étréchy, Étampes 91580, France",
    "title": "monument aux morts d'Étréchy",
    "lon": 2.19,
    "lat": 48.493698,
    "url": ""
  },
  {
    "address": "Château de Chamarande, Allée Royale, Chamarande, Étampes 91730, France",
    "title": "château de Chamarande",
    "lon": 2.220337,
    "lat": 48.513046,
    "url": ""
  },
  {
    "address": "Église Saint-Quentin, Rue de la Fontaine, Chamarande, Étampes 91730, France",
    "title": "Église Saint-Quentin",
    "lon": 2.217871,
    "lat": 48.513092,
    "url": ""
  },
  {
    "address": "Église Saint-Sulpice, Rue du Four à Chaux, Saint-Sulpice-de-Favières, Étampes 91910, France",
    "title": "Église Saint-Sulpice de Saint-Sulpice-de-Favières",
    "lon": 2.178979,
    "lat": 48.541348,
    "url": ""
  },
  {
    "address": "D 82, Moulin de L'Écurie, Saint-Sulpice-de-Favières, Étampes 91910, France",
    "title": "polissoir du bois de la Briche",
    "lon": 2.1666,
    "lat": 48.5354,
    "url": ""
  },
  {
    "address": "Domaine de Segrez, Chemin de Feugères à Saint-Sulpice, Saint-Sulpice-de-Favières, Étampes 91910, France",
    "title": "Domaine de Segrez",
    "lon": 2.177168,
    "lat": 48.546272,
    "url": ""
  },
  {
    "address": "Église Saint-Pierre, Place de L'Église, Égly, Palaiseau 91520, France",
    "title": "Église Saint-Pierre d'Égly",
    "lon": 2.2235,
    "lat": 48.580475,
    "url": ""
  },
  {
    "address": "Menhir du Pierre-Beaumirault, Promenade de l'Etang de Villelouvette, Égly, Palaiseau 91520, France",
    "title": "Menhir du Pierre-Beaumirault",
    "lon": 2.19835,
    "lat": 48.580811,
    "url": ""
  },
  {
    "address": "Église Saint-Thomas-Becket, Rue du Puits Grès, Boissy-sous-Saint-Yon, Étampes 91790, France",
    "title": "Église Saint-Thomas-Becket",
    "lon": 2.209766,
    "lat": 48.558136,
    "url": ""
  },
  {
    "address": "Église Saint-Pierre, Place de l'Ordre National du Mérite, Breuillet, Palaiseau 91650, France",
    "title": "Église Saint-Pierre",
    "lon": 2.171067,
    "lat": 48.566696,
    "url": ""
  },
  {
    "address": "Église Saint-Martin, 3, Place de l'Église, Breux-Jouy, Palaiseau 91650, France",
    "title": "Église Saint-Martin de Breux-Jouy",
    "lon": 2.177246,
    "lat": 48.561115,
    "url": ""
  },
  {
    "address": "Domaine de Segrez, Chemin de Feugères à Saint-Sulpice, Saint-Sulpice-de-Favières, Étampes 91910, France",
    "title": "Arboretum de Segrez",
    "lon": 2.177222,
    "lat": 48.546112,
    "url": ""
  },
  {
    "address": "Église Saint-Didier, Rue de la Fontaine Bouillant, Bruyères-le-Châtel, Palaiseau 91680, France",
    "title": "Église Saint-Didier de Bruyères-le-Châtel",
    "lon": 2.188534,
    "lat": 48.59177,
    "url": ""
  },
  {
    "address": "Château de Fontenay-les-briis, D 97, Bel Air, Fontenay-lès-Briis, Palaiseau 91640, France",
    "title": "Fontenay-lès-Briis",
    "lon": 2.156429,
    "lat": 48.618065,
    "url": ""
  },
  {
    "address": "Rue des Juifs, Bruyères-le-Châtel, Palaiseau 91680, France",
    "title": "Champeaux cemetery of Montmorency",
    "lon": 2.1925,
    "lat": 48.5938,
    "url": ""
  },
  {
    "address": "Château de Neuville, Rue de Goupigny, Gambais, Rambouillet 78950, France",
    "title": "Château de Neuville",
    "lon": 1.669572,
    "lat": 48.767532,
    "url": ""
  },
  {
    "address": "Château de Saint-Jean de Beauregard, Rue du Château, Villeziers, Saint-Jean-de-Beauregard, Palaiseau 91940, France",
    "title": "Château de Beauregard (Essonne)",
    "lon": 2.163675,
    "lat": 48.66132,
    "url": ""
  },
  {
    "address": "Château de Montagu, Avenue Massénat-Deroche, Marcoussis, Palaiseau 91460, France",
    "title": "Château de Montagu",
    "lon": 2.220876,
    "lat": 48.645954,
    "url": ""
  },
  {
    "address": "Château de Janvry, Rue du Marchais, Janvry, Palaiseau 91640, France",
    "title": "Château de Janvry",
    "lon": 2.154048,
    "lat": 48.648449,
    "url": ""
  },
  {
    "address": "Des Fils et une Aiguille, Rue du Clos des Vignes, Janvry, Palaiseau 91640, France",
    "title": "Château de Janvry",
    "lon": 2.153516,
    "lat": 48.647324,
    "url": ""
  },
  {
    "address": "Église Sainte-Madeleine, D 446, Marcoussis, Palaiseau 91460, France",
    "title": "Église Sainte-Marie-Madeleine de Marcoussis",
    "lon": 2.230173,
    "lat": 48.642288,
    "url": ""
  },
  {
    "address": "Château de Montagu, Avenue Massénat-Deroche, Marcoussis, Palaiseau 91460, France",
    "title": "Château de Montagu",
    "lon": 2.220444,
    "lat": 48.645939,
    "url": ""
  },
  {
    "address": "Viaduc des Fauvettes, Les Delâches, Gometz-le-Châtel, Palaiseau France",
    "title": "Viaduc des Fauvettes",
    "lon": 2.15275,
    "lat": 48.679131,
    "url": ""
  },
  {
    "address": "Viaduc des Fauvettes, Les Delâches, Gometz-le-Châtel, Palaiseau France",
    "title": "Viaduc des Fauvettes",
    "lon": 2.152261,
    "lat": 48.67852,
    "url": ""
  },
  {
    "address": "Temple de la Gloire, Avenue des Lacs, Le Parc d'Orsay, Le Guichet, Orsay, Palaiseau 91400, France",
    "title": "Temple de la Gloire",
    "lon": 2.200895,
    "lat": 48.700184,
    "url": ""
  },
  {
    "address": "bâtiment MA, Chemin de la Hunière, Résidence privée du Parc d'Ardenay, La Hunière, Palaiseau 91120, France",
    "title": "Office National d'Études et de Recherches Aérospatiales",
    "lon": 2.231945,
    "lat": 48.712223,
    "url": ""
  },
  {
    "address": "Église Saint-Martin et Saint-Laurent, Avenue du Maréchal Foch, Orsay Centre, La Bouvêche, Orsay, Palaiseau 91400, France",
    "title": "église Saint-Martin-Saint-Laurent d'Orsay",
    "lon": 2.188117,
    "lat": 48.698666,
    "url": ""
  },
  {
    "address": "Église Saint-Mathieu, Rue Charles de Gaulle, Bures Cottage, Bures-sur-Yvette, Palaiseau 91440, France",
    "title": "Église Saint-Matthieu de Bures-sur-Yvette",
    "lon": 2.162048,
    "lat": 48.697006,
    "url": ""
  },
  {
    "address": "Abbatiale Saint-Louis-du-Temple, Chemin de Limon, Vauhallan, Palaiseau 91430, France",
    "title": "Abbatiale Saint-Louis-du-Temple",
    "lon": 2.202931,
    "lat": 48.729153,
    "url": ""
  },
  {
    "address": "Abbaye Bénédictine Saint-Louis-du-Temple, Chemin de Limon, Vauhallan, Palaiseau 91430, France",
    "title": "Abbaye Saint-Louis-du-Temple de Vauhallan",
    "lon": 2.203233,
    "lat": 48.728943,
    "url": ""
  },
  {
    "address": "Institut bouddhique Trúc Lâm, 9, Rue de Neuchâtel, Quartier Suisse, Villebon-sur-Yvette, Palaiseau 91140, France",
    "title": "Trúc Lâm Thiền Viện temple of Paris",
    "lon": 2.2163,
    "lat": 48.695202,
    "url": ""
  },
  {
    "address": "Centre d'Optométrie Appliquée, Route de Chartres, Bures-Royaume, Bures-Montjay, Bures-sur-Yvette, Palaiseau 91440, France",
    "title": "musée de l'Optométrie",
    "lon": 2.15761,
    "lat": 48.691101,
    "url": ""
  },
  {
    "address": "Université Paris-Saclay - Campus Vallée, Rue Pierre de Coubertin, Orsay, Palaiseau 91440, France",
    "title": "Parc botanique de Launay",
    "lon": 2.172946,
    "lat": 48.700905,
    "url": ""
  },
  {
    "address": "Château de la Martinière, Rue Léon Mignotte, Le Hameau du Petit Bièvres, Vauboyen, Bièvres, Palaiseau 91570, France",
    "title": "Château de la Martinière",
    "lon": 2.211428,
    "lat": 48.756332,
    "url": ""
  },
  {
    "address": "Église Saint-Rigomer et Sainte-Ténestine, Impasse de l'Église, Vauhallan, Palaiseau 91430, France",
    "title": "Église Saint-Rigomer et Sainte-Ténestine",
    "lon": 2.206541,
    "lat": 48.734108,
    "url": ""
  },
  {
    "address": "Église Saint-Martin, Rue Bonnard, Cottages de Montebello, Jouy-en-Josas, Versailles 78350, France",
    "title": "Église Saint-Martin",
    "lon": 2.168068,
    "lat": 48.763477,
    "url": ""
  },
  {
    "address": "Église Saint-Pierre, Place, Domaine de la Vallée de la Bièvre, Igny, Palaiseau 91430, France",
    "title": "Église Saint-Pierre",
    "lon": 2.225616,
    "lat": 48.742275,
    "url": ""
  },
  {
    "address": "Château de Vauboyen, VC 2, Vauboyen, Bièvres, Palaiseau 91570, France",
    "title": "Château de Vauboyen",
    "lon": 2.194196,
    "lat": 48.761471,
    "url": ""
  },
  {
    "address": "Croix, Grande Rue du 8 Mai 1945, Vauhallan, Palaiseau 91430, France",
    "title": "Croix",
    "lon": 2.206388,
    "lat": 48.7342,
    "url": ""
  },
  {
    "address": "Pavillon du Roi, Route d'Orsay, Le Poirier Brulé, Saclay, Palaiseau 91400, France",
    "title": "pavillon de l'Étang",
    "lon": 2.165,
    "lat": 48.742222,
    "url": ""
  },
  {
    "address": "Musée de la Toile de Jouy, 54, Rue Charles de Gaulle, Les Loges-en-Josas, Versailles 78350, France",
    "title": "Musée de la Toile de Jouy",
    "lon": 2.152086,
    "lat": 48.76918,
    "url": ""
  },
  {
    "address": "Église Saint-Martin, Espace Aimée D. Steinlen, Le Hameau du Petit Bièvres, Bièvres, Palaiseau 91570, France",
    "title": "Église Saint-Martin",
    "lon": 2.217659,
    "lat": 48.754383,
    "url": ""
  },
  {
    "address": "Christ de Saclay, Route de Bièvres, Saclay, Palaiseau 91400, France",
    "title": "Christ de Saclay",
    "lon": 2.163867,
    "lat": 48.730663,
    "url": ""
  },
  {
    "address": "Maison littéraire de Victor Hugo, 45b, Rue de Vauboyen, Le Hameau du Petit Bièvres, Vauboyen, Bièvres, Palaiseau 91570, France",
    "title": "château des Roches",
    "lon": 2.20063,
    "lat": 48.757,
    "url": ""
  },
  {
    "address": "6, Rue Pierre Vaudenay, Cottages de Montebello, Jouy-en-Josas, Versailles 78350, France",
    "title": "maison de Léon et Jeanne Blum",
    "lon": 2.1681,
    "lat": 48.7691,
    "url": ""
  },
  {
    "address": "Rue de l'Église, Le Hameau du Petit Bièvres, Bièvres, Palaiseau 91570, France",
    "title": "musée de l'outil",
    "lon": 2.21736,
    "lat": 48.7547,
    "url": ""
  },
  {
    "address": "Château de Bellevue, Rue Marcel Allégot, La Côte de la Verrerie, Bellevue, Meudon, Boulogne-Billancourt 92190, France",
    "title": "Château de Bellevue",
    "lon": 2.227307,
    "lat": 48.821457,
    "url": ""
  },
  {
    "address": "Domaine de Bellevue, Route des Gardes, La Bourgogne des Capucins, Bellevue, Meudon, Boulogne-Billancourt 92190, France",
    "title": "Domaine de Bellevue",
    "lon": 2.228512,
    "lat": 48.816994,
    "url": ""
  },
  {
    "address": "Domaine de Bellevue : Bâtiment, Route des Gardes, La Bourgogne des Capucins, Bellevue, Meudon, Boulogne-Billancourt 92190, France",
    "title": "Domaine de Bellevue",
    "lon": 2.227553,
    "lat": 48.816719,
    "url": ""
  },
  {
    "address": "Sèvres-Rive-Gauche, Rue Henri Duveyrier, Ernest Renan, Les Bruyères, Sèvres, Boulogne-Billancourt 92310, France",
    "title": "gare de Sèvres-Rive-Gauche",
    "lon": 2.215007,
    "lat": 48.821236,
    "url": ""
  },
  {
    "address": "Domaine de Bellevue, Place du Président Wilson, La Côte de la Verrerie, Bellevue, Meudon, Boulogne-Billancourt 92190, France",
    "title": "Domaine de Bellevue",
    "lon": 2.227938,
    "lat": 48.821945,
    "url": ""
  },
  {
    "address": "Sèvres-Rive-Gauche, Rue Henri Duveyrier, Ernest Renan, Les Bruyères, Sèvres, Boulogne-Billancourt 92310, France",
    "title": "gare de Sèvres-Rive-Gauche",
    "lon": 2.214901,
    "lat": 48.821224,
    "url": ""
  },
  {
    "address": "Domaine national : Pavillon des Filtres, Avenue des États-Unis, Clagny Glatigny, Versailles 78000, France",
    "title": "Domaine national : Pavillon des Filtres",
    "lon": 2.151287,
    "lat": 48.811356,
    "url": ""
  },
  {
    "address": "Monument Pershing - Lafayette, D 185, Clagny Glatigny, Versailles 78000, France",
    "title": "Monument Pershing - Lafayette",
    "lon": 2.155394,
    "lat": 48.813496,
    "url": ""
  },
  {
    "address": "Domaine de Bellevue, Route des Gardes, La Bourgogne des Capucins, Bellevue, Meudon, Boulogne-Billancourt 92190, France",
    "title": "Domaine de Bellevue",
    "lon": 2.22572,
    "lat": 48.81628,
    "url": ""
  },
  {
    "address": "Bâtiment 2 - Grands communs, Place Jules Janssen, Le Clos Madame, Meudon-sur-Seine, Meudon, Boulogne-Billancourt 92190, France",
    "title": "Château de Meudon",
    "lon": 2.230935,
    "lat": 48.809452,
    "url": ""
  },
  {
    "address": "Orangerie de Meudon, Avenue des Sablons, Derrière le Parc de Chalais, Fleury, Meudon, Boulogne-Billancourt 92190, France",
    "title": "Orangerie de Meudon",
    "lon": 2.233239,
    "lat": 48.805305,
    "url": ""
  },
  {
    "address": "Bâtiment 1 - Corps de garde, Place Jules Janssen, Le Clos Madame, Meudon-sur-Seine, Meudon, Boulogne-Billancourt 92190, France",
    "title": "Château de Meudon",
    "lon": 2.231106,
    "lat": 48.809593,
    "url": ""
  },
  {
    "address": "Hangar Y, Avenue de Trivaux, Le Parc de Chalais, Fleury, Meudon, Boulogne-Billancourt 92190, France",
    "title": "Hangar Y",
    "lon": 2.233175,
    "lat": 48.797817,
    "url": ""
  },
  {
    "address": "23BIS, Avenue Chauchard, Montreuil, Versailles 78000, France",
    "title": "Pavillon de musique de la comtesse de Provence",
    "lon": 2.15687,
    "lat": 48.800098,
    "url": ""
  },
  {
    "address": "107, Avenue de Paris, Montreuil, Versailles 78000, France",
    "title": "Ancienne Laiterie de Madame",
    "lon": 2.154961,
    "lat": 48.798977,
    "url": ""
  },
  {
    "address": "Maison André-Bloc, Rue des Capucins, Tivoli, Bellevue, Meudon, Boulogne-Billancourt 92190, France",
    "title": "maison Bloc",
    "lon": 2.22882,
    "lat": 48.813499,
    "url": ""
  },
  {
    "address": "Église Notre-Dame de l'Assomption, Avenue du Général Gallieni, Les Tybilles, Bellevue, Meudon, Boulogne-Billancourt 92190, France",
    "title": "Église Notre-Dame de l'Assomption",
    "lon": 2.229929,
    "lat": 48.818611,
    "url": ""
  },
  {
    "address": "Pagode Chua TINH TAM, Rue des Bois, La Caille, Les Bruyères, Sèvres, Boulogne-Billancourt 92310, France",
    "title": "Pagode Chua TINH TAM",
    "lon": 2.207099,
    "lat": 48.821442,
    "url": ""
  },
  {
    "address": "Saint-Mark's Church, Rue du Pont Colbert, Porchefontaine, Versailles France",
    "title": "St. Mark's Church, Versailles",
    "lon": 2.1514,
    "lat": 48.7873,
    "url": ""
  },
  {
    "address": "Sèvres - Ville d'Avray, Place Pierre Brossolette, Les Jardies, Sèvres, Boulogne-Billancourt 92310, France",
    "title": "Gare de Sèvres – Ville-d'Avray",
    "lon": 2.200758,
    "lat": 48.827412,
    "url": ""
  },
  {
    "address": "Musée des Avelines, 60, Rue Gounod, Saint-Cloud, Arrondissement of Nanterre 92210, France",
    "title": "musée des Avelines",
    "lon": 2.208283,
    "lat": 48.843433,
    "url": ""
  },
  {
    "address": "Maison des Jardies, Avenue Gambetta, Résidence Corot, Sèvres, Boulogne-Billancourt 92310, France",
    "title": "Maison des Jardies",
    "lon": 2.198637,
    "lat": 48.82711,
    "url": ""
  },
  {
    "address": "Musée des Avelines, 60, Rue Gounod, Saint-Cloud, Arrondissement of Nanterre 92210, France",
    "title": "Jardin des Avelines",
    "lon": 2.208668,
    "lat": 48.843506,
    "url": ""
  },
  {
    "address": "Mémorial de l'Escadrille La Fayette, Boulevard Raymond Poincaré, Domaine de la Marche, Marnes-la-Coquette, Boulogne-Billancourt 92430, France",
    "title": "Mémorial de l'Escadrille La Fayette",
    "lon": 2.171847,
    "lat": 48.836636,
    "url": ""
  },
  {
    "address": "Collège Arménien Samuel Moorat, 26, Rue Troyon, Brimborion, Les Bruyères, Sèvres, Boulogne-Billancourt 92310, France",
    "title": "Collège Arménien Samuel Moorat",
    "lon": 2.226983,
    "lat": 48.825199,
    "url": ""
  },
  {
    "address": "Château de Thierry, Rue de Marnes, Résidence Musset, Ville-d'Avray, Boulogne-Billancourt 92410, France",
    "title": "Château De Ville d'Avray",
    "lon": 2.186458,
    "lat": 48.82756,
    "url": ""
  },
  {
    "address": "Château de Buchillot, Rue de l'Abreuvoir, Parchamp - Albert Kahn, Boulogne-Billancourt 92100, France",
    "title": "Château de Buchillot",
    "lon": 2.232377,
    "lat": 48.847626,
    "url": ""
  },
  {
    "address": "Église Sainte-Thérèse, Rue du 6 Juin 1944, Silly-Galliéni, Boulogne-Billancourt 92100, France",
    "title": "Église Sainte-Thérèse",
    "lon": 2.233835,
    "lat": 48.83725,
    "url": ""
  },
  {
    "address": "Château Rothschild, Allée de Longchamp, Parchamp - Albert Kahn, Boulogne-Billancourt 92100, France",
    "title": "Château Rothschild",
    "lon": 2.233584,
    "lat": 48.849758,
    "url": ""
  },
  {
    "address": "Musée Albert Kahn, 10, Rue du Port, Parchamp - Albert Kahn, Boulogne-Billancourt 92100, France",
    "title": "Musée Albert-Kahn",
    "lon": 2.227083,
    "lat": 48.841488,
    "url": ""
  },
  {
    "address": "La Serre, Rue du Port, Parchamp - Albert Kahn, Boulogne-Billancourt 92100, France",
    "title": "Jardin Albert Kahn",
    "lon": 2.227506,
    "lat": 48.842278,
    "url": ""
  },
  {
    "address": "Domaine national de Saint-Cloud, 1, Avenue de la Grille d'Honneur, Saint-Cloud, Arrondissement of Nanterre 92210, France",
    "title": "Domaine national de Saint-Cloud",
    "lon": 2.19646,
    "lat": 48.833748,
    "url": ""
  },
  {
    "address": "Musée d'Histoire Urbaine et Sociale, 1, Rue Merlin de Thionville, Quartier Centre-Ville, Suresnes, Arrondissement of Nanterre 92150, France",
    "title": "Musée d'Histoire Urbaine et Sociale",
    "lon": 2.22162,
    "lat": 48.868206,
    "url": ""
  },
  {
    "address": "Église Saint-Nicolas et Saint-Marc, Place de l'Église, Résidence Musset, Ville-d'Avray, Boulogne-Billancourt 92410, France",
    "title": "Église Saint-Nicolas-et-Saint-Marc de Ville-d'Avray",
    "lon": 2.189467,
    "lat": 48.826607,
    "url": ""
  },
  {
    "address": "Église Saint-Clodoald, Place Charles de Gaulle, Saint-Cloud, Arrondissement of Nanterre 92210, France",
    "title": "Église Saint-Clodoald",
    "lon": 2.219044,
    "lat": 48.843498,
    "url": ""
  },
  {
    "address": "Église Saint-Romain, Rue de l'Église, Noiretier, Les Bruyères, Sèvres, Boulogne-Billancourt 92310, France",
    "title": "Église Saint-Romain",
    "lon": 2.210729,
    "lat": 48.823952,
    "url": ""
  },
  {
    "address": "Église paroissiale Sainte-Eugénie, 1, Place de la Mairie, Domaine de la Marche, Marnes-la-Coquette, Boulogne-Billancourt 92430, France",
    "title": "Église Sainte-Eugénie de Marnes-la-Coquette",
    "lon": 2.177877,
    "lat": 48.830219,
    "url": ""
  },
  {
    "address": "Synagogue de Boulogne, Rue de l'Abreuvoir, Parchamp - Albert Kahn, Boulogne-Billancourt 92100, France",
    "title": "Synagogue de Boulogne",
    "lon": 2.230154,
    "lat": 48.847443,
    "url": ""
  },
  {
    "address": "Sèvres - Ville d'Avray, Place Pierre Brossolette, Les Jardies, Sèvres, Boulogne-Billancourt 92310, France",
    "title": "Gare de Sèvres – Ville-d'Avray",
    "lon": 2.200599,
    "lat": 48.827404,
    "url": ""
  },
  {
    "address": "Golf de Paris, Avenue Francis Chaveton, Saint-Cloud, Arrondissement of Nanterre 92210, France",
    "title": "Saint-Cloud Racecourse",
    "lon": 2.2042,
    "lat": 48.858299,
    "url": ""
  },
  {
    "address": "Galerie Des Fours, Rue François Boucher, Sèvres - Cité De La Céramique, Sèvres, Boulogne-Billancourt 92310, France",
    "title": "Manufacture nationale de Sèvres",
    "lon": 2.2225,
    "lat": 48.828609,
    "url": ""
  },
  {
    "address": "Château dit La Petite Malmaison, Rue du Commandant Jacquot, Village Jonchère-Malmaison-Saint-Cucufa, Rueil-Malmaison, Arrondissement of Nanterre 92500, France",
    "title": "Château de la Petite Malmaison",
    "lon": 2.160573,
    "lat": 48.869801,
    "url": ""
  },
  {
    "address": "Mausolée du Prince Impérial, Avenue Marmontel, Village Jonchère-Malmaison-Saint-Cucufa, Rueil-Malmaison, Arrondissement of Nanterre 92500, France",
    "title": "mausolée du Prince Impérial",
    "lon": 2.16678,
    "lat": 48.8694,
    "url": ""
  },
  {
    "address": "Rue Gabriel Sommer, Domaine de la Marche, Marnes-la-Coquette, Boulogne-Billancourt 92430, France",
    "title": "Town hall of Marnes-la-Coquette",
    "lon": 2.177511,
    "lat": 48.830166,
    "url": ""
  },
  {
    "address": "Pont de Suresnes, Quai Léon Blum, Quartier Centre-Ville, Suresnes, Arrondissement of Nanterre 92150, France",
    "title": "Pont de Suresnes",
    "lon": 2.22944,
    "lat": 48.866699,
    "url": ""
  },
  {
    "address": "Avenue Clodoald, Saint-Cloud, Arrondissement of Nanterre 92210, France",
    "title": "Villa Dall'Ava",
    "lon": 2.218233,
    "lat": 48.855846,
    "url": ""
  },
  {
    "address": "Institut national supérieur de formation et de recherche pour l'éducation des jeunes handicapés, Rue du Pas Saint-Maurice, Quartier Mont-Valérien, Suresnes, Arrondissement of Nanterre 92150, France",
    "title": "École de plein air de Suresnes",
    "lon": 2.21334,
    "lat": 48.869099,
    "url": ""
  },
  {
    "address": "Pont de Saint-Cloud, Avenue du Maréchal de Lattre de Tassigny, Silly-Galliéni, Boulogne-Billancourt 92100, France",
    "title": "Pont de Saint-Cloud",
    "lon": 2.223625,
    "lat": 48.841324,
    "url": ""
  },
  {
    "address": "28 Bis, Rue Dailly, Saint-Cloud, Arrondissement of Nanterre 92210, France",
    "title": "château de Pélican",
    "lon": 2.220409,
    "lat": 48.845406,
    "url": ""
  },
  {
    "address": "Musée National de Céramique, 2, Place de la Manufacture Nationale, Brimborion, Sèvres, Boulogne-Billancourt 92310, France",
    "title": "National Museum of Ceramics",
    "lon": 2.22305,
    "lat": 48.828682,
    "url": ""
  },
  {
    "address": "Musée Paul-Belmondo, Rue de l'Abreuvoir, Parchamp - Albert Kahn, Boulogne-Billancourt 92100, France",
    "title": "Musée Paul-Belmondo",
    "lon": 2.232364,
    "lat": 48.847916,
    "url": ""
  },
  {
    "address": "Théâtre Jean Vilar, Place de Stalingrad, Quartier Cité-Jardins, Suresnes, Arrondissement of Nanterre 92150, France",
    "title": "Théâtre de Suresnes Jean Vilar",
    "lon": 2.201894,
    "lat": 48.863342,
    "url": ""
  },
  {
    "address": "Église Notre-Dame de la Paix, Avenue Gustave Stresemann, Quartier Cité-Jardins, Suresnes, Arrondissement of Nanterre 92150, France",
    "title": "Église Notre-Dame de la Paix",
    "lon": 2.205163,
    "lat": 48.864082,
    "url": ""
  },
  {
    "address": "Église Saint-Denys, Grande Rue, Vaucresson, Arrondissement of Nanterre 92420, France",
    "title": "Église Saint-Denys de Vaucresson",
    "lon": 2.158865,
    "lat": 48.839096,
    "url": ""
  },
  {
    "address": "École maternelle Val d'Or, 4, Rue Michel Salles, Saint-Cloud, Arrondissement of Nanterre 92210, France",
    "title": "Jardin des Tourneroches",
    "lon": 2.214165,
    "lat": 48.855663,
    "url": ""
  },
  {
    "address": "Musée Renault, 27, Rue des Abondances, Parchamp - Albert Kahn, Boulogne-Billancourt 92100, France",
    "title": "Musée Renault",
    "lon": 2.227991,
    "lat": 48.845741,
    "url": ""
  },
  {
    "address": "Fronton du Palais de L'Industrie - La France couronnant de lauriers, l'Art et l'Industrie, Avenue de la Grille d'Honneur, Saint-Cloud, Arrondissement of Nanterre 92210, France",
    "title": "Fronton du Palais de L'Industrie - La France couronnant de lauriers, l'Art et l'Industrie",
    "lon": 2.21988,
    "lat": 48.835083,
    "url": ""
  },
  {
    "address": "Chapelle Saint-Leufroy, Rue du Chemin Vert, Quartier République, Suresnes, Arrondissement of Nanterre 92150, France",
    "title": "Chapelle Saint-Leufroy",
    "lon": 2.22365,
    "lat": 48.864094,
    "url": ""
  },
  {
    "address": "Église Saint-Louis, Place Saint-Louis, Clos de la Source, Garches, Arrondissement of Nanterre 92380, France",
    "title": "Église Saint-Louis de Garches",
    "lon": 2.187982,
    "lat": 48.84486,
    "url": ""
  },
  {
    "address": "Chapelle Notre-Dame de la Salette, Chemin des Hocquettes, Quartier Mont-Valérien, Suresnes, Arrondissement of Nanterre 92150, France",
    "title": "Chapelle Notre-Dame de la Salette",
    "lon": 2.21827,
    "lat": 48.867126,
    "url": ""
  },
  {
    "address": "Poney club de Brimborion, Avenue de la Division Leclerc, Les Binelles, Les Bruyères, Sèvres, Boulogne-Billancourt 92310, France",
    "title": "Poney club de Brimborion",
    "lon": 2.223237,
    "lat": 48.823921,
    "url": ""
  },
  {
    "address": "Passerelle de l'Avre, Parchamp - Albert Kahn, Boulogne-Billancourt 92100, France",
    "title": "Passerelle de l'Avre",
    "lon": 2.224294,
    "lat": 48.85294,
    "url": ""
  },
  {
    "address": "Passerelle de l'Avre, Quai Marcel Dassault, Saint-Cloud, Arrondissement of Nanterre 92210, France",
    "title": "Nouvelle Passerelle de l'Avre",
    "lon": 2.22277,
    "lat": 48.852856,
    "url": ""
  },
  {
    "address": "Pont Renault, Île Seguin, Rives de Seine, Boulogne-Billancourt 92100, France",
    "title": "Pont Renault",
    "lon": 2.232817,
    "lat": 48.825974,
    "url": ""
  },
  {
    "address": "Passerelle de l'Avre, Avenue de l'Aqueduc, Saint-Cloud, Arrondissement of Nanterre 92210, France",
    "title": "Passerelle de l'Avre",
    "lon": 2.221551,
    "lat": 48.852787,
    "url": ""
  },
  {
    "address": "Musée National de Céramique, 2, Place de la Manufacture Nationale, Brimborion, Sèvres, Boulogne-Billancourt 92310, France",
    "title": "Sèvres - Cité de la céramique",
    "lon": 2.22306,
    "lat": 48.828602,
    "url": ""
  },
  {
    "address": "L'Ermitage, Boulevard Richelieu, Village Richelieu-Châtaigneraie, Rueil-Malmaison, Arrondissement of Nanterre 92500, France",
    "title": "Château de Rueil",
    "lon": 2.18476,
    "lat": 48.869968,
    "url": ""
  },
  {
    "address": "63, Avenue du Maréchal Foch, Saint-Cloud, Arrondissement of Nanterre 92210, France",
    "title": "Église Saint-Joseph Artisan de Saint-Cloud",
    "lon": 2.20812,
    "lat": 48.847649,
    "url": ""
  },
  {
    "address": "Terrasse du Château, Saint-Cloud, Arrondissement of Nanterre 92210, France",
    "title": "Château de Saint-Cloud",
    "lon": 2.216389,
    "lat": 48.837502,
    "url": ""
  },
  {
    "address": "Chapelle protestante de Ville-d'Avray, 41, Avenue de Balzac, Résidence Corot, Ville-d'Avray, Boulogne-Billancourt 92410, France",
    "title": "chapelle protestante de Ville-d'Avray",
    "lon": 2.19301,
    "lat": 48.8274,
    "url": ""
  },
  {
    "address": "Suzanne, Rue Anna Jacquin, Parchamp - Albert Kahn, Boulogne-Billancourt 92100, France",
    "title": "théâtre de l'Ouest parisien",
    "lon": 2.23351,
    "lat": 48.844501,
    "url": ""
  },
  {
    "address": "Direction Porte de Versailles, Rue Cluseret, Quartier Centre-Ville, Suresnes, Arrondissement of Nanterre 92150, France",
    "title": "musée d'histoire urbaine et sociale de Suresnes",
    "lon": 2.221417,
    "lat": 48.868111,
    "url": ""
  },
  {
    "address": "Pavillon de Breteuil, Allée du Mail, Saint-Cloud, Arrondissement of Nanterre 92210, France",
    "title": "Pavillon de Breteuil",
    "lon": 2.220178,
    "lat": 48.829319,
    "url": ""
  },
  {
    "address": "Hippodrome de Longchamp, Route des Moulins, Quartier d'Auteuil, 16th Arrondissement, Paris,   75016, France",
    "title": "Abbey of Longchamp",
    "lon": 2.233889,
    "lat": 48.858334,
    "url": ""
  },
  {
    "address": "Chemin des Cormaillons, Village Jonchère-Malmaison-Saint-Cucufa, Rueil-Malmaison, Arrondissement of Nanterre 92500, France",
    "title": "parc naturel des Gallicourts",
    "lon": 2.15888,
    "lat": 48.864101,
    "url": ""
  },
  {
    "address": "Domaine national de la Malmaison, Avenue Tuck Stell, Village Jonchère-Malmaison-Saint-Cucufa, Rueil-Malmaison, Arrondissement of Nanterre 92500, France",
    "title": "Domaine national de la Malmaison",
    "lon": 2.167176,
    "lat": 48.870876,
    "url": ""
  },
  {
    "address": "Église Saint-Léonard et Saint-Martin (ancienne), 3, Grande Rue, Croissy-sur-Seine, Saint-Germain-en-Laye 78290, France",
    "title": "Église Saint-Léonard et Saint-Martin (ancienne)",
    "lon": 2.152982,
    "lat": 48.877983,
    "url": ""
  },
  {
    "address": "Domaine national de la Malmaison, Avenue Tuck Stell, Village Jonchère-Malmaison-Saint-Cucufa, Rueil-Malmaison, Arrondissement of Nanterre 92500, France",
    "title": "Château de Malmaison",
    "lon": 2.166838,
    "lat": 48.870823,
    "url": ""
  },
  {
    "address": "Château de Bois-Préau, Avenue de l'Impératrice Joséphine, Village Jonchère-Malmaison-Saint-Cucufa, Rueil-Malmaison, Arrondissement of Nanterre 92500, France",
    "title": "Château de Bois-Préau",
    "lon": 2.177039,
    "lat": 48.874737,
    "url": ""
  },
  {
    "address": "Église Saint-Pierre et Saint-Paul, Place de l'Église, Village Centre-ville, Rueil-Malmaison, Arrondissement of Nanterre 92500, France",
    "title": "church of St. Peter St. Paul",
    "lon": 2.181381,
    "lat": 48.87645,
    "url": ""
  },
  {
    "address": "Cathédrale Sainte-Geneviève, Rue de l'Église, Quartier du Centre, Nanterre, Arrondissement of Nanterre 92000, France",
    "title": "Nanterre Cathedral",
    "lon": 2.19588,
    "lat": 48.890705,
    "url": ""
  },
  {
    "address": "Parvis de la Cathédrale, Rue de l'Église, Quartier du Centre, Nanterre, Arrondissement of Nanterre 92000, France",
    "title": "Nanterre Cathedral",
    "lon": 2.195559,
    "lat": 48.890823,
    "url": ""
  },
  {
    "address": "Église du Cœur-Immaculé-de-Marie, Rue Honoré d'Estienne d'Orves, Quartier Centre-Ville, Suresnes, Arrondissement of Nanterre 92150, France",
    "title": "Église du Cœur-Immaculé-de-Marie",
    "lon": 2.227603,
    "lat": 48.871799,
    "url": ""
  },
  {
    "address": "Cathédrale Sainte-Geneviève, Rue de l'Église, Quartier du Centre, Nanterre, Arrondissement of Nanterre 92000, France",
    "title": "Nanterre Cathedral",
    "lon": 2.196173,
    "lat": 48.890854,
    "url": ""
  },
  {
    "address": "Collège Émile Zola, Avenue Franklin Roosevelt, Quartier Liberté, Suresnes, Arrondissement of Nanterre 92150, France",
    "title": "Collège Émile Zola",
    "lon": 2.221561,
    "lat": 48.872936,
    "url": ""
  },
  {
    "address": "Lycée Paul Langevin, Rue Paul Bert, Quartier Liberté, Suresnes, Arrondissement of Nanterre 92150, France",
    "title": "Lycée Paul-Langevin",
    "lon": 2.222163,
    "lat": 48.877045,
    "url": ""
  },
  {
    "address": "Maison Fournaise, ponton Maison Fournaise, Les Bas de Chatou, Chatou, Saint-Germain-en-Laye 78400, France",
    "title": "Maison Fournaise",
    "lon": 2.163334,
    "lat": 48.88966,
    "url": ""
  },
  {
    "address": "Parking Serpent, Allée des Demoiselles d'Avignon, Résidence Aillaud 'Tours Nuages', Quartier du Parc Sud, Nanterre, Arrondissement of Nanterre 92000, France",
    "title": "Tours Aillaud",
    "lon": 2.227392,
    "lat": 48.889488,
    "url": ""
  },
  {
    "address": "Quai du Nymphée, Les Hauts de Chatou, Chatou, Saint-Germain-en-Laye 78400, France",
    "title": "barrage de Chatou",
    "lon": 2.163889,
    "lat": 48.894722,
    "url": ""
  },
  {
    "address": "Domaine de Vert Mont, Rue Charles Floquet, Village Jonchère-Malmaison-Saint-Cucufa, Rueil-Malmaison, Arrondissement of Nanterre 92500, France",
    "title": "domaine de Vert-Mont",
    "lon": 2.17267,
    "lat": 48.870499,
    "url": ""
  },
  {
    "address": "8, Grande Rue, Croissy-sur-Seine, Saint-Germain-en-Laye 78290, France",
    "title": "maison Joséphine",
    "lon": 2.15323,
    "lat": 48.878571,
    "url": ""
  },
  {
    "address": "Hôpital Foch, Rue Gardenat-Lapostol, Quartier Centre-Ville, Suresnes, Arrondissement of Nanterre 92150, France",
    "title": "hôpital Foch",
    "lon": 2.2213,
    "lat": 48.870998,
    "url": ""
  },
  {
    "address": "Statue de la République Française, dite Marianne, Place du 11 Novembre 1918 et des Anciens Combattants, Village Centre-ville, Rueil-Malmaison, Arrondissement of Nanterre 92500, France",
    "title": "Town hall of Rueil-Malmaison",
    "lon": 2.181578,
    "lat": 48.877708,
    "url": ""
  },
  {
    "address": "Château Chanorier, 12, Grande Rue, Croissy-sur-Seine, Saint-Germain-en-Laye 78290, France",
    "title": "Château de Croissy-sur-Seine",
    "lon": 2.152,
    "lat": 48.877899,
    "url": ""
  },
  {
    "address": "Centre sportif de l’Ile des Impressionnistes, Mail des Impressionnistes, Les Bas de Chatou, Chatou, Saint-Germain-en-Laye 78400, France",
    "title": "pont ferroviaire de Chatou",
    "lon": 2.16111,
    "lat": 48.8853,
    "url": ""
  },
  {
    "address": "15, Rue Gustave Caillebotte, Carrières-sur-Seine, Saint-Germain-en-Laye 78420, France",
    "title": "jardins de Mademoiselle de La Vallière",
    "lon": 2.17889,
    "lat": 48.908901,
    "url": ""
  },
  {
    "address": "Ancienne Mairie, Place du 11 Novembre 1918 et des Anciens Combattants, Village Centre-ville, Rueil-Malmaison, Arrondissement of Nanterre 92500, France",
    "title": "Musée de Rueil-Malmaison",
    "lon": 2.181444,
    "lat": 48.877815,
    "url": ""
  },
  {
    "address": "Théâtre des Amandiers, 7, Avenue Pablo Picasso, Quartier de La Boule - Champs Pierreux, Nanterre, Arrondissement of Nanterre 92270, France",
    "title": "Théâtre Nanterre-Amandiers",
    "lon": 2.214186,
    "lat": 48.893196,
    "url": ""
  },
  {
    "address": "Square des Groues, Quartier du Parc Nord, Nanterre, Arrondissement of Nanterre 92000, France",
    "title": "Parc André Malraux",
    "lon": 2.218566,
    "lat": 48.892921,
    "url": ""
  },
  {
    "address": "(Privé) Crèche \"La Caravelle\", Allée Jacques Prévert, Village Rueil sur Seine, Rueil-Malmaison, Arrondissement of Nanterre 92500, France",
    "title": "Parc des Impressionnistes",
    "lon": 2.168497,
    "lat": 48.893623,
    "url": ""
  },
  {
    "address": "Mémorial de la France combattante, Promenade Jacques-Baumel, Quartier Mont-Valérien, Suresnes, Arrondissement of Nanterre 92150, France",
    "title": "Mémorial de la France combattante",
    "lon": 2.213854,
    "lat": 48.871578,
    "url": ""
  },
  {
    "address": "Monument aux morts de la Guerre de 1870, Rue Auguste Neveu, Village Coteaux, Rueil-Malmaison, Arrondissement of Nanterre 92500, France",
    "title": "Cimetière Ancien de Rueil-Malmaison",
    "lon": 2.191502,
    "lat": 48.880157,
    "url": ""
  },
  {
    "address": "Suresnes American Cemetery and Memorial, Avenue du Colonel Hubert Delestrée, Quartier Mont-Valérien, Suresnes, Arrondissement of Nanterre 92150, France",
    "title": "Suresnes American Cemetery and Memorial",
    "lon": 2.21768,
    "lat": 48.87228,
    "url": ""
  },
  {
    "address": "Chapelle Saint-Louis, Rue Voltaire, Quartier Liberté, Suresnes, Arrondissement of Nanterre 92150, France",
    "title": "Chapelle Saint-Louis",
    "lon": 2.224467,
    "lat": 48.878159,
    "url": ""
  },
  {
    "address": "Église Sainte-Thérèse, Village Belle Rive, Rueil-Malmaison, Arrondissement of Nanterre 92500, France",
    "title": "église Sainte-Thérèse de Rueil-Malmaison",
    "lon": 2.168296,
    "lat": 48.885895,
    "url": ""
  },
  {
    "address": "Église Sainte-Catherine-de-Sienne, Rue des Pâquerettes, Quartier du Petit Nanterre, Nanterre, Arrondissement of Nanterre 92000, France",
    "title": "Église Sainte-Catherine-de-Sienne",
    "lon": 2.215569,
    "lat": 48.908394,
    "url": ""
  },
  {
    "address": "Forteresse du Mont-Valérien, Promenade Jacques-Baumel, Quartier Mont-Valérien, Suresnes, Arrondissement of Nanterre 92150, France",
    "title": "Chapelle",
    "lon": 2.210687,
    "lat": 48.872849,
    "url": ""
  },
  {
    "address": "Église Saint-Jean-Baptiste, Rue Gabriel Péri, Carrières-sur-Seine, Saint-Germain-en-Laye 78420, France",
    "title": "Église Saint-Jean-Baptiste",
    "lon": 2.177508,
    "lat": 48.905769,
    "url": ""
  },
  {
    "address": "Le Beau Temps Pourchassant la Tempête, Rue Salvador Allende, La Défense 7, Quartier du Parc Nord, Nanterre, Arrondissement of Nanterre 92000, France",
    "title": "Apel·les Fenosa",
    "lon": 2.220876,
    "lat": 48.895672,
    "url": ""
  },
  {
    "address": "Viaduc ferroviaire de Nanterre, Avenue de la Commune de Paris, Quartier de la République, Nanterre, Arrondissement of Nanterre 92000, France",
    "title": "Ligne de Nanterre-Université à Sartrouville",
    "lon": 2.197545,
    "lat": 48.905224,
    "url": ""
  },
  {
    "address": "Viaduc ferroviaire de Nanterre, Avenue de la Commune de Paris, Quartier de la République, Nanterre, Arrondissement of Nanterre 92000, France",
    "title": "Ligne de Nanterre-Université à Sartrouville",
    "lon": 2.197448,
    "lat": 48.905262,
    "url": ""
  },
  {
    "address": "Ancienne Mairie, Place du 11 Novembre 1918 et des Anciens Combattants, Village Centre-ville, Rueil-Malmaison, Arrondissement of Nanterre 92500, France",
    "title": "Battle of Buzenval (1870)",
    "lon": 2.18132,
    "lat": 48.8778,
    "url": ""
  },
  {
    "address": "Ancienne Mairie, Place du 11 Novembre 1918 et des Anciens Combattants, Village Centre-ville, Rueil-Malmaison, Arrondissement of Nanterre 92500, France",
    "title": "Battle of Buzenval (1871)",
    "lon": 2.18132,
    "lat": 48.8778,
    "url": ""
  },
  {
    "address": "n°6, Promenade Jacques-Baumel, Quartier Mont-Valérien, Suresnes, Arrondissement of Nanterre 92150, France",
    "title": "Parc du Mont-Valérien",
    "lon": 2.21149,
    "lat": 48.876301,
    "url": ""
  },
  {
    "address": "Rue Lienard, Village Coteaux, Rueil-Malmaison, Arrondissement of Nanterre 92500, France",
    "title": "musée des Gardes suisses",
    "lon": 2.1872,
    "lat": 48.879501,
    "url": ""
  },
  {
    "address": "Château de Maisons-Laffitte, Avenue du Louvre, Place du Château, Maisons-Laffitte, Saint-Germain-en-Laye 78600, France",
    "title": "Château de Maisons",
    "lon": 2.153903,
    "lat": 48.947227,
    "url": ""
  },
  {
    "address": "Chapelle du Château du Marais, Rue du Parc, Argenteuil 95100, France",
    "title": "Chapelle du Château du Marais",
    "lon": 2.228071,
    "lat": 48.935627,
    "url": ""
  },
  {
    "address": "Église Saint-Martin, Rue de l'Église, Le Fresnay Vieux-Pays, Sartrouville, Saint-Germain-en-Laye 78500, France",
    "title": "Église Saint-Martin de Sartrouville",
    "lon": 2.173115,
    "lat": 48.94569,
    "url": ""
  },
  {
    "address": "Chapelle de la Paix, Place de la Vieille Église, Place du Château, Maisons-Laffitte, Saint-Germain-en-Laye 78600, France",
    "title": "Chapelle de la Paix",
    "lon": 2.152373,
    "lat": 48.946472,
    "url": ""
  },
  {
    "address": "Chapelle de la Paix, Place de la Vieille Église, Place du Château, Maisons-Laffitte, Saint-Germain-en-Laye 78600, France",
    "title": "Old fountain (Maisons-Laffitte)",
    "lon": 2.15185,
    "lat": 48.946602,
    "url": ""
  },
  {
    "address": "Rue de Paris, Maisons-Laffitte, Saint-Germain-en-Laye 78600, France",
    "title": "Vieux moulin (Maisons-Laffitte)",
    "lon": 2.15381,
    "lat": 48.9436,
    "url": ""
  },
  {
    "address": "Camping International de Maisons-Laffitte, 1, Rue Johnson, Maisons-Laffitte, Saint-Germain-en-Laye 78500, France",
    "title": "pont ferroviaire de Maisons-Laffitte",
    "lon": 2.1507,
    "lat": 48.941502,
    "url": ""
  },
  {
    "address": "Pont de la 2e Division Blindée, Quai de Seine, Le Fresnay Vieux-Pays, Sartrouville, Saint-Germain-en-Laye 78500, France",
    "title": "pont de Maisons-Laffitte",
    "lon": 2.15806,
    "lat": 48.944698,
    "url": ""
  },
  {
    "address": "Avenue Eglé, Place du Château, Maisons-Laffitte, Saint-Germain-en-Laye 78600, France",
    "title": "pavillon, 24 avenue Eglé",
    "lon": 2.151,
    "lat": 48.951099,
    "url": ""
  },
  {
    "address": "Propriété Juillard, Avenue Wagram, Place du Château, Maisons-Laffitte, Saint-Germain-en-Laye 78600, France",
    "title": "propriété Juillard",
    "lon": 2.15374,
    "lat": 48.9548,
    "url": ""
  },
  {
    "address": "Pataugeoire, Chemin de Halage, Quartier du Petit Nanterre, Colombes, Arrondissement of Nanterre 92700, France",
    "title": "Parc Pierre-Lagravère",
    "lon": 2.231243,
    "lat": 48.925648,
    "url": ""
  },
  {
    "address": "Église Saint-Jean XXIII, Rue Saint-Exupéry, La Marinière, Sartrouville, Saint-Germain-en-Laye 78500, France",
    "title": "Église Saint-Jean XXIII",
    "lon": 2.194495,
    "lat": 48.942757,
    "url": ""
  },
  {
    "address": "Église Saint-Martin, Rue Jean 23, La Butte de la Tuile, Herblay-sur-Seine, Argenteuil 95220, France",
    "title": "Église Saint-Martin d'Herblay",
    "lon": 2.16016,
    "lat": 48.987453,
    "url": ""
  },
  {
    "address": "Église Saint-Martin, Rue Gabriel Péri, Le Haut du Village, Cormeilles-en-Parisis, Argenteuil 95240, France",
    "title": "Église Saint-Martin",
    "lon": 2.203913,
    "lat": 48.977314,
    "url": ""
  },
  {
    "address": "Stade Gaston Frémont, Rue du Stade, Le Chemin de la Place, Cormeilles-en-Parisis, Argenteuil 95240, France",
    "title": "Fort de Cormeilles-en-Parisis",
    "lon": 2.1958,
    "lat": 48.98373,
    "url": ""
  },
  {
    "address": "Notre-Dame de l'Assomption, Allée de l'Église, Le Haut-Tertre, Taverny, Argenteuil 95150, France",
    "title": "Notre-Dame de l'Assomption",
    "lon": 2.227676,
    "lat": 49.030437,
    "url": ""
  },
  {
    "address": "Église Saint-Gervais et Saint-Protais, Grande Rue, Saint-Protais, La Chicaille, Bessancourt, Argenteuil 95550, France",
    "title": "Église Saint-Gervais-et-Saint-Protais de Bessancourt",
    "lon": 2.218217,
    "lat": 49.03875,
    "url": ""
  },
  {
    "address": "Chemin d'Eragny à Bessancourt, Les Deux-Ormes, Pierrelaye, Argenteuil 95480, France",
    "title": "église Saint-Jean-Baptiste de Pierrelay",
    "lon": 2.161071,
    "lat": 49.02618,
    "url": ""
  },
  {
    "address": "Église Saint-Sulpice, Rue Aristide Briand, Villiers-Adam, Pontoise 95840, France",
    "title": "église Saint-Sulpice de Villiers-Adam",
    "lon": 2.233393,
    "lat": 49.064281,
    "url": ""
  },
  {
    "address": "Ancienne Abbaye du Val, Rue de l'Abbaye du Val, Mériel, Pontoise 95630, France",
    "title": "Ancienne Abbaye du Val",
    "lon": 2.22665,
    "lat": 49.078449,
    "url": ""
  },
  {
    "address": "Château de Stors, Rue de Pontoise, Hameau de Stors, L'Isle-Adam, Pontoise 95290, France",
    "title": "Château de Stors",
    "lon": 2.209018,
    "lat": 49.089638,
    "url": ""
  },